City_ID,City,Lat,Lng,Max Temp,Humidity,Cloudiness,Wind Speed,Country,Date
0,stanley,54.868,-1.6985,15.98,90,75,3.09,GB,1694948922
1,touros,-5.1989,-35.4608,27.98,67,13,7.71,BR,1694948898
2,kochkor-ata,41.0389,72.4833,29.37,20,71,2.78,UZ,1694949105
3,adamstown,-25.066,-130.1015,18.95,68,97,6.71,PN,1694949105
4,thompson,55.7435,-97.8558,8.45,99,48,3.02,CA,1694949105
5,iqaluit,63.7506,-68.5145,-1.28,80,21,1.79,CA,1694949105
6,taltal,-25.4,-70.4833,14.98,87,0,2.21,CL,1694949106
7,crane,31.3974,-102.3501,21.33,70,57,2.4,US,1694949106
8,callao,-12.0667,-77.15,18.73,88,75,3.09,PE,1694949106
9,bilibino,68.0546,166.4372,3.02,71,100,1.35,RU,1694949106
10,diawara,15.022,-12.5437,29.69,58,95,3.43,SN,1694949106
11,edinburgh of the seven seas,-37.0676,-12.3116,12.51,75,72,7.72,SH,1694949107
12,ilulissat,69.2167,-51.1,1.01,86,75,2.06,GL,1694948862
13,selfoss,63.9331,-20.9971,9.47,73,97,4.34,IS,1694949107
14,saint-joseph,-21.3667,55.6167,25.21,74,36,3.69,RE,1694948982
15,ushuaia,-54.8,-68.3,-5.52,95,90,2.05,AR,1694949018
16,lompoc,34.6391,-120.4579,17.08,85,0,4.92,US,1694949107
17,invercargill,-46.4,168.35,7.23,89,65,3.13,NZ,1694949108
18,namtsy,62.7161,129.6658,1.63,68,63,2.08,RU,1694949108
19,port-aux-francais,-49.35,70.2167,6.01,96,100,16.56,TF,1694949108
20,juneau,58.3019,-134.4197,12.0,93,100,11.32,US,1694949021
21,cuito,-12.3833,16.9333,31.76,13,44,3.74,AO,1694949109
22,nago,26.5881,127.9761,26.92,78,91,2.79,JP,1694949109
23,ushtobe,45.2514,77.9838,22.97,22,2,6.41,KZ,1694949109
24,blackmans bay,-43.0167,147.3167,10.07,67,81,3.28,AU,1694949109
25,saudarkrokur,65.7461,-19.6394,10.03,69,16,0.87,IS,1694949109
26,ust-nera,64.5667,143.2,2.29,73,93,1.55,RU,1694949110
27,kodiak,57.79,-152.4072,10.73,58,75,10.29,US,1694949110
28,puerto natales,-51.7236,-72.4875,-2.53,92,42,1.35,CL,1694949110
29,mahibadhoo,3.7833,72.9667,28.52,74,79,5.61,MV,1694949110
30,bethel,41.3712,-73.414,12.73,88,0,0.0,US,1694948819
31,college,64.8569,-147.8028,9.48,76,100,0.0,US,1694949111
32,saipan,15.1355,145.701,27.39,89,75,5.66,MP,1694948983
33,west island,-12.1568,96.8225,25.99,73,40,7.72,CC,1694949111
34,hami,42.8,93.45,23.33,16,71,5.82,CN,1694949111
35,waitangi,-43.9535,-176.5597,13.79,86,78,7.6,NZ,1694949111
36,morehead city,34.7229,-76.726,23.89,72,0,0.89,US,1694949111
37,ribeira grande,38.5167,-28.7,22.1,60,40,4.63,PT,1694949112
38,borzya,50.3833,116.5167,8.63,93,100,3.07,RU,1694949112
39,margaret river,-33.95,115.0667,11.82,69,7,3.76,AU,1694949077
40,fort bragg,35.139,-79.006,17.68,89,100,0.0,US,1694949112
41,la passe,45.5549,-0.8967,26.13,56,98,5.42,FR,1694949112
42,tianchang,37.9981,114.0156,23.06,83,60,1.59,CN,1694949112
43,grytviken,-54.2811,-36.5092,-0.54,98,99,5.84,GS,1694949113
44,punta arenas,-53.15,-70.9167,2.06,55,75,4.12,CL,1694949047
45,soe,-9.8607,124.284,17.8,81,30,2.68,ID,1694949113
46,tofol,5.3248,163.0078,28.98,70,100,2.11,FM,1694949113
47,qaqortoq,60.7167,-46.0333,2.42,52,0,4.54,GL,1694949114
48,island harbour,50.724,-1.2758,20.08,93,96,5.81,GB,1694949114
49,colonia,50.9333,6.95,27.16,63,20,2.57,DE,1694949002
50,francisco sa,-16.4758,-43.4883,23.94,61,7,5.04,BR,1694949114
51,centerville,39.6284,-84.1594,14.12,91,0,0.45,US,1694949114
52,la'ie,21.6477,-157.9253,25.98,77,13,5.81,US,1694949114
53,charters towers,-20.1,146.2667,17.46,70,0,4.65,AU,1694949115
54,mogocha,53.7333,119.7667,7.73,96,100,1.85,RU,1694949115
55,susuman,62.7833,148.1667,1.31,86,100,2.26,RU,1694949115
56,kulhudhuffushi,6.6221,73.07,27.58,77,98,4.6,MV,1694949115
57,puerto ayora,-0.7393,-90.3518,22.53,94,61,2.83,EC,1694949116
58,kirsanov,52.6549,42.7224,22.2,39,6,3.06,RU,1694949116
59,aksu,41.1231,80.2644,27.58,20,0,2.83,CN,1694949116
60,flying fish cove,-10.4217,105.6791,24.82,78,75,5.66,CX,1694949116
61,coahuayana de hidalgo,18.7,-103.6583,25.22,91,98,1.98,MX,1694949116
62,san jose,37.3394,-121.895,18.27,78,100,9.39,US,1694949116
63,zuenoula,7.4292,-6.0431,26.75,78,100,3.0,CI,1694949117
64,dunedin,-45.8742,170.5036,11.0,41,6,6.26,NZ,1694949117
65,gillette,44.2911,-105.5022,12.51,63,0,2.24,US,1694948824
66,port mathurin,-19.6833,63.4167,23.02,75,3,9.27,MU,1694949117
67,yaritagua,10.08,-69.1261,22.54,89,75,0.52,VE,1694949117
68,vorgashor,67.5833,63.95,4.43,89,100,5.71,RU,1694949118
69,longyearbyen,78.2186,15.6401,-1.09,74,75,3.09,SJ,1694949118
70,senador jose porfirio,-2.5908,-51.9542,25.67,78,49,2.82,BR,1694949118
71,amalapuram,16.5833,82.0167,32.55,61,49,3.19,IN,1694949118
72,qa'en,33.7265,59.1844,27.64,13,2,4.81,IR,1694949118
73,gherla,47.0333,23.9167,21.39,43,21,3.16,RO,1694949118
74,avarua,-21.2078,-159.775,23.03,78,100,4.63,CK,1694949119
75,berryville,36.3648,-93.568,14.81,93,0,1.33,US,1694949119
76,isafjordur,66.0755,-23.124,9.02,61,20,1.54,IS,1694949119
77,aasiaat,68.7098,-52.8699,0.61,82,94,2.35,GL,1694949119
78,badger,64.8,-147.5333,9.43,76,100,0.0,US,1694949119
79,doctor juan leon mallorquin,-25.4,-55.2667,22.85,68,0,2.94,PY,1694949119
80,wailua homesteads,22.0669,-159.378,25.44,79,20,6.17,US,1694949120
81,ocean shores,46.9737,-124.1563,14.0,93,0,2.57,US,1694949120
82,timbuktu,16.7735,-3.0074,36.8,28,89,4.05,ML,1694949120
83,cova figueira,14.8905,-24.2934,22.7,78,14,5.55,CV,1694949120
84,port alfred,-33.5906,26.891,19.54,47,75,4.02,ZA,1694949120
85,whitehorse,60.7161,-135.0538,3.92,95,99,3.06,CA,1694948955
86,yellowknife,62.456,-114.3525,10.79,99,97,2.68,CA,1694949121
87,kalmunai,7.4167,81.8167,29.75,64,97,7.72,LK,1694949121
88,ambon,-3.6954,128.1814,27.71,15,40,3.09,ID,1694949121
89,bredasdorp,-34.5322,20.0403,17.01,48,83,3.41,ZA,1694949121
90,jamestown,42.097,-79.2353,10.31,95,0,1.54,US,1694949122
91,pisco,-13.7,-76.2167,17.03,82,83,1.03,PE,1694949122
92,zheleznogorsk-ilimskiy,56.5768,104.1217,13.53,69,34,1.49,RU,1694948911
93,taoudenni,22.6783,-3.9836,41.84,15,26,6.88,ML,1694949122
94,alo,7.4178,6.7371,29.07,73,84,3.27,NG,1694949122
95,tiksi,71.6872,128.8694,0.02,91,100,4.21,RU,1694948905
96,port lincoln,-34.7333,135.8667,15.2,83,84,9.28,AU,1694949123
97,hailey,43.5196,-114.3153,14.38,57,0,4.12,US,1694949123
98,as sulayyil,20.4607,45.5779,41.33,7,100,2.31,SA,1694949023
99,north platte,41.1239,-100.7654,12.43,87,0,0.0,US,1694949124
100,enewetak,11.3474,162.3373,29.18,78,100,7.55,MH,1694949124
101,carnarvon,-24.8667,113.6333,20.45,74,60,10.03,AU,1694949124
102,anadyr,64.75,177.4833,-2.72,100,20,2.0,RU,1694949124
103,puerto aysen,-45.4,-72.7,0.01,97,97,1.66,CL,1694949124
104,igarka,67.4667,86.5833,6.85,59,92,2.35,RU,1694949124
105,atafu village,-8.5421,-172.5159,29.07,77,13,7.38,TK,1694949125
106,kievka,50.2619,71.5514,17.96,44,70,2.97,KZ,1694949125
107,grand falls-windsor,48.9332,-55.6649,19.72,96,99,0.45,CA,1694949125
108,yeed,4.55,43.0333,34.53,32,53,7.9,SO,1694949125
109,luderitz,-26.6481,15.1594,23.24,36,0,8.45,NA,1694949125
110,amursk,50.2261,136.8994,13.0,69,85,1.25,RU,1694949125
111,asau,46.4333,26.4,22.51,46,79,2.73,RO,1694949126
112,paita,-5.0892,-81.1144,19.15,89,97,4.27,PE,1694949126
113,fortuna,40.5982,-124.1573,14.64,97,100,1.54,US,1694949126
114,leava,-14.3,-178.1667,27.55,73,95,10.52,WF,1694949126
115,lebu,-37.6167,-73.65,5.83,81,28,1.44,CL,1694949126
116,albany,42.6001,-73.9662,11.68,93,21,0.45,US,1694949126
117,cole harbour,44.6724,-63.4751,15.71,94,100,9.77,CA,1694949127
118,acajutla,13.5928,-89.8275,26.12,81,78,2.39,SV,1694948872
119,yamada,39.4667,141.95,23.34,94,33,3.19,JP,1694949127
120,kangding,30.0513,101.9603,16.8,96,88,2.03,CN,1694949127
121,sao vicente,-23.9631,-46.3919,27.37,63,0,0.23,BR,1694949127
122,ixtapa,20.7,-105.2,24.57,87,85,1.1,MX,1694949128
123,cartagena,10.3997,-75.5144,27.79,94,20,2.06,CO,1694948890
124,emerald,-23.5333,148.1667,20.52,46,0,7.35,AU,1694949128
125,uturoa,-16.7333,-151.4333,25.36,84,18,5.81,PF,1694949128
126,sawakin,19.1059,37.3321,36.8,34,37,6.07,SD,1694949128
127,inongo,-1.95,18.2667,23.98,80,87,2.07,CD,1694949128
128,shenandoah,30.4013,-91.0009,24.05,66,90,2.08,US,1694949129
129,moletai,55.2333,25.4167,20.95,48,3,4.81,LT,1694949129
130,vilyuysk,63.7553,121.6247,1.23,98,100,3.62,RU,1694949129
131,bel ombre,-4.6167,55.4167,24.91,94,75,6.69,SC,1694949129
132,seguela,7.9611,-6.6731,25.58,82,100,1.77,CI,1694949129
133,port elizabeth,-33.918,25.5701,18.39,56,89,3.58,ZA,1694948897
134,al bayda',32.7627,21.7551,24.16,52,71,5.89,LY,1694949130
135,amos,48.5669,-78.1162,9.11,97,47,1.58,CA,1694949130
136,olonkinbyen,70.9221,-8.7187,3.2,73,100,6.94,SJ,1694949130
137,hawaiian paradise park,19.5933,-154.9731,22.73,94,100,2.57,US,1694949130
138,berdigestyakh,62.0989,126.6992,2.25,67,100,1.78,RU,1694949130
139,nadi,-17.8,177.4167,25.0,88,20,1.54,FJ,1694949019
140,klaksvik,62.2266,-6.589,11.51,86,100,10.0,FO,1694949131
141,olyokminsk,60.3736,120.4264,6.76,52,98,2.54,RU,1694949131
142,merizo village,13.2658,144.6691,28.31,91,100,4.47,GU,1694949131
143,mbabane,-26.3167,31.1333,13.24,83,97,2.9,SZ,1694949131
144,papao,-17.75,-149.55,23.82,85,34,5.96,PF,1694949131
145,fort mcmurray,56.7268,-111.381,7.77,87,41,2.57,CA,1694949131
146,hasaki,35.7333,140.8333,27.94,87,40,6.73,JP,1694949131
147,mili,6.0815,171.735,26.9,82,100,3.81,MH,1694949132
148,mariehamn,60.0973,19.9348,13.92,62,20,7.72,AX,1694949132
149,vilyuchinsk,52.9306,158.4028,12.01,73,46,8.36,RU,1694949132
150,luanda,-8.8368,13.2343,24.35,78,99,4.12,AO,1694949025
151,sibolga,1.7427,98.7792,25.68,87,98,0.81,ID,1694949090
152,turpan,42.9333,89.1667,28.86,18,96,2.51,CN,1694949132
153,mata-utu,-13.2816,-176.1745,27.64,74,90,10.49,WF,1694949132
154,lospalos,-8.5186,127.0025,21.74,77,100,4.54,TL,1694949133
155,yokadouma,3.5167,15.05,23.35,96,100,0.72,CM,1694949133
156,hamilton,39.1834,-84.5333,14.43,94,100,1.54,US,1694948998
157,coquimbo,-29.9533,-71.3436,12.51,93,17,1.34,CL,1694949133
158,afaahiti,-17.75,-149.2833,22.93,88,55,6.27,PF,1694949133
159,hoa binh,20.8133,105.3383,26.43,93,99,1.3,VN,1694949133
160,ulanhot,46.0833,122.0833,16.39,89,100,1.16,CN,1694949134
161,mazatlan,23.2167,-106.4167,26.98,94,75,0.0,MX,1694949021
162,spring creek,40.7266,-115.5859,12.39,26,6,1.77,US,1694949134
163,whakatane,-37.9585,176.9854,14.93,82,0,1.79,NZ,1694949134
164,cambria,35.5641,-121.0808,15.41,91,1,1.77,US,1694949134
165,chimbarongo,-34.7,-71.05,7.49,96,100,2.24,CL,1694949134
166,berezovyy,51.6667,135.7,13.93,67,87,1.99,RU,1694949135
167,faya-largeau,17.9257,19.1043,39.94,8,0,7.2,TD,1694949135
168,inari,68.906,27.0288,10.11,95,100,5.58,FI,1694949135
169,kavieng,-2.5744,150.7967,27.25,73,12,6.16,PG,1694949135
170,kiunga,-6.1219,141.2906,22.69,79,93,1.31,PG,1694949136
171,yuzhno-kurilsk,44.0306,145.8556,17.99,98,99,3.98,RU,1694949136
172,ulladulla,-35.35,150.4667,13.76,90,0,2.43,AU,1694949136
173,wau,7.7029,27.9953,32.63,51,77,0.61,SS,1694949136
174,tazacorte,28.629,-17.9293,24.54,71,20,6.17,ES,1694949136
175,codrington,-38.2667,141.9667,11.47,92,83,2.16,AU,1694949136
176,talnakh,69.4865,88.3972,6.23,67,62,2.56,RU,1694949136
177,nova sintra,14.8667,-24.7167,22.51,75,34,6.5,CV,1694949137
178,quellon,-43.1167,-73.6167,3.02,82,62,3.31,CL,1694949137
179,tarko-sale,64.9225,77.785,14.44,64,100,4.47,RU,1694949137
180,amurzet,47.6967,131.0981,16.06,87,35,2.31,RU,1694949137
181,san pedro pochutla,15.7333,-96.4667,24.28,82,90,1.82,MX,1694949137
182,genhe,50.7833,121.5167,8.08,98,99,0.31,CN,1694948947
183,margate,51.3813,1.3862,20.17,82,99,2.24,GB,1694949102
184,sinabang,2.4803,96.3801,26.14,80,100,2.8,ID,1694949138
185,fort st. john,56.2499,-120.8529,7.71,63,57,1.91,CA,1694949138
186,ikwiriri,-7.9562,38.9716,33.58,35,92,5.21,TZ,1694949138
187,dublin,37.7021,-121.9358,17.69,85,100,5.14,US,1694948663
188,papatowai,-46.5619,169.4708,7.6,79,61,9.75,NZ,1694949138
189,puerto santa,-8.9906,-78.6456,17.85,94,78,2.97,PE,1694948940
190,tralee,52.2704,-9.7026,15.14,88,100,1.03,IE,1694949139
191,petropavlovsk-kamchatsky,53.0452,158.6483,11.36,74,34,9.87,RU,1694948908
192,nar'yan-mar,67.6713,53.087,8.88,61,37,2.38,RU,1694949139
193,east london,-33.0153,27.9116,19.43,37,63,9.2,ZA,1694949139
194,kayangel,8.0823,134.7173,28.4,72,98,2.08,PW,1694949139
195,eidson road,28.6772,-100.487,22.87,78,94,2.49,US,1694949139
196,el granada,37.5027,-122.4694,18.3,89,100,2.57,US,1694949140
197,nemuro,43.3236,145.575,18.45,95,94,6.46,JP,1694949140
198,pervomayka,43.3736,76.94,22.06,37,75,2.0,KZ,1694949140
199,waynesville,35.4887,-82.9887,17.07,92,78,0.89,US,1694949140
200,yilan,24.757,121.753,29.39,89,37,0.06,TW,1694949140
201,asarganj,25.15,86.6833,34.21,56,51,3.53,IN,1694949141
202,sao gabriel da cachoeira,-0.1303,-67.0892,23.77,82,77,0.72,BR,1694949141
203,klyuchi,52.2667,79.1667,19.86,48,99,2.48,RU,1694949141
204,purpe,64.4803,76.6897,16.55,64,100,4.33,RU,1694949141
205,mount isa,-20.7333,139.5,22.87,25,0,3.09,AU,1694949141
206,holualoa,19.6228,-155.9522,23.77,75,91,0.89,US,1694949142
207,mpika,-11.8343,31.4529,31.84,15,2,4.32,ZM,1694949142
208,georgetown,5.4112,100.3354,29.97,83,20,0.0,MY,1694949019
209,constantia,44.1833,28.65,24.28,54,56,6.95,RO,1694949124
210,dejen,10.1667,38.1333,20.46,55,49,0.67,ET,1694949142
211,smithers,54.7804,-127.1743,7.7,81,58,0.87,CA,1694949142
212,iskateley,67.6803,53.1512,8.82,61,37,2.38,RU,1694949143
213,masterton,-40.9597,175.6575,13.82,79,82,9.36,NZ,1694949143
214,piana degli albanesi,37.998,13.2797,32.68,55,21,1.75,IT,1694949143
215,newman,37.3138,-121.0208,16.83,85,2,1.9,US,1694949143
216,monticello,45.3055,-93.7941,11.68,97,75,1.54,US,1694949143
217,howard springs,-12.497,131.047,26.95,60,58,5.2,AU,1694949143
218,tura,25.5198,90.2201,27.98,87,34,0.58,IN,1694949144
219,chagoda,59.164,35.3285,16.29,50,99,5.03,RU,1694949144
220,sorong,-0.8833,131.25,25.97,85,53,5.99,ID,1694949144
221,glace bay,46.1969,-59.957,17.72,89,100,11.83,CA,1694949144
222,qamdo,31.1667,97.2333,9.52,71,91,3.29,CN,1694949144
223,mananjary,-21.2167,48.3333,26.37,55,0,5.12,MG,1694949145
224,nuuk,64.1835,-51.7216,1.34,80,75,1.03,GL,1694949145
225,caleta de carquin,-11.0925,-77.6267,18.22,89,94,3.25,PE,1694949145
226,chillicothe,39.3331,-82.9824,14.58,99,100,0.0,US,1694949145
227,kirkuk,35.4681,44.3922,36.84,11,0,6.02,IQ,1694949002
228,gryfino,53.2524,14.4883,24.01,48,100,1.18,PL,1694949145
229,kralendijk,12.15,-68.2667,28.99,74,40,4.12,BQ,1694948991
230,mount pearl,47.5166,-52.7813,20.53,98,100,7.2,CA,1694949146
231,moanda,-1.5575,13.2178,29.09,63,97,2.22,GA,1694949146
232,garoua boulai,5.8833,14.55,23.52,84,86,1.1,CM,1694949146
233,hermanus,-34.4187,19.2345,16.56,61,32,3.87,ZA,1694949146
234,port douglas,-16.4833,145.4667,21.39,80,21,6.33,AU,1694949146
235,saint joseph,39.7686,-94.8466,13.09,90,40,0.0,US,1694949147
236,vila franca do campo,37.7167,-25.4333,20.23,99,100,5.25,PT,1694949147
237,poronaysk,49.2167,143.1167,14.01,87,100,2.98,RU,1694949147
238,frontera,26.9333,-101.45,22.72,91,20,0.45,MX,1694949147
239,saint-pierre,-21.3393,55.4781,25.82,61,75,7.72,RE,1694949147
240,funafuti,-8.5243,179.1942,29.0,89,20,2.57,TV,1694949147
241,cidreira,-30.1811,-50.2056,18.89,72,0,1.43,BR,1694949148
242,dryden,49.7833,-92.7503,8.16,100,100,2.06,CA,1694949148
243,namibe,-15.1961,12.1522,22.65,72,58,4.36,AO,1694949148
244,sinan,34.8262,126.1086,24.71,84,12,1.51,KR,1694949148
245,kimbe,-5.5502,150.1429,23.16,83,53,3.67,PG,1694949148
246,geraldton,-28.7667,114.6,16.23,72,0,5.66,AU,1694949148
247,rongelap,11.1635,166.8941,29.09,79,96,7.25,MH,1694949149
248,utrik,11.2278,169.8474,28.83,81,100,8.09,MH,1694949149
249,aras-asan,8.8908,126.3033,26.58,85,80,1.24,PH,1694949149
250,zavolzhsk,57.4823,42.1378,17.32,42,39,2.52,RU,1694949149
251,tazovsky,67.4667,78.7,8.81,57,100,6.77,RU,1694948474
252,labuan bajo,-8.4964,119.8877,25.48,76,65,0.16,ID,1694949149
253,burang,30.25,81.1667,10.32,87,99,2.96,CN,1694949150
254,lubu,23.1742,112.2809,26.45,92,44,0.87,CN,1694949150
255,kavaratti,10.5669,72.642,27.92,79,91,5.17,IN,1694949150
256,glubokoye,50.1456,82.3114,17.86,68,75,1.0,KZ,1694949150
257,sao felix do xingu,-6.6447,-51.995,27.26,59,2,2.19,BR,1694949150
258,okha,53.5739,142.9478,7.79,61,98,4.48,RU,1694948922
259,san juan bautista,-14.0108,-75.7358,18.29,74,93,1.72,PE,1694949150
260,murzuq,25.9155,13.9184,32.55,13,0,2.91,LY,1694948895
261,daru,-9.0763,143.2092,23.93,77,11,6.12,PG,1694949151
262,cotonou,6.3654,2.4183,26.65,82,100,6.96,BJ,1694949151
263,barano d'ischia,40.718,13.9309,30.31,80,36,0.89,IT,1694949151
264,banfora,10.6333,-4.7667,25.45,84,95,2.46,BF,1694949151
265,oeiras do para,-2.0031,-49.8544,27.22,75,87,1.98,BR,1694949151
266,sisimiut,66.9395,-53.6735,2.21,71,100,0.22,GL,1694949152
267,mutuali,-14.8706,37.0044,34.82,22,0,1.94,MZ,1694949152
268,bardai,11.65,7.2333,28.65,63,95,2.2,NG,1694949152
269,minas de marcona,-15.2119,-75.1103,13.89,82,87,2.56,PE,1694949152
270,pauini,-7.7136,-66.9764,23.38,81,53,0.74,BR,1694949152
271,tshabong,-26.05,22.45,23.26,12,0,3.11,BW,1694949152
272,kidal,18.4411,1.4078,37.2,23,91,3.98,ML,1694949153
273,meadow lakes,61.6247,-149.6011,8.84,95,100,0.0,US,1694949153
274,khandyga,62.6667,135.6,0.36,97,73,2.07,RU,1694949153
275,at taj,24.2049,23.2857,32.95,11,0,2.9,LY,1694949153
276,richards bay,-28.783,32.0377,17.35,72,100,2.61,ZA,1694949153
277,zaozersk,69.4005,32.4476,9.23,68,100,0.07,RU,1694949154
278,rosrath,50.8956,7.1818,26.97,61,20,2.57,DE,1694949041
279,san fernando de apure,7.8878,-67.4724,23.67,96,54,1.9,VE,1694949154
280,shingu,33.7333,135.9833,24.9,92,9,2.48,JP,1694949154
281,manta,-0.95,-80.7333,23.88,88,20,2.06,EC,1694949154
282,maumere,-8.6199,122.2111,25.5,71,4,2.42,ID,1694949155
283,iranshahr,27.2025,60.6848,41.06,14,8,4.01,IR,1694949155
284,attapeu,14.8,106.8333,26.64,89,92,0.47,LA,1694949155
285,inhambane,-23.865,35.3833,23.99,78,75,7.72,MZ,1694949155
286,prado,-17.3411,-39.2208,24.96,76,34,4.05,BR,1694949155
287,kapuskasing,49.4169,-82.4331,11.05,93,100,1.03,CA,1694949156
288,chinde,26.8418,88.0763,23.55,80,67,0.72,NP,1694949156
289,badulla,6.9895,81.0557,24.85,77,99,1.43,LK,1694949156
290,harper,4.375,-7.7169,27.09,78,78,4.69,LR,1694949156
291,morozovsk,48.3539,41.8261,22.07,35,75,5.82,RU,1694949134
292,yaren,-0.5472,166.916,27.96,80,98,6.4,NR,1694948925
293,plastun,44.7561,136.2939,15.88,96,100,0.81,RU,1694949157
294,extrema,-22.8547,-46.3183,23.38,51,0,2.46,BR,1694949157
295,weno,7.4515,151.8468,28.49,71,91,0.78,FM,1694949157
296,dudinka,69.4058,86.1778,6.46,67,80,2.52,RU,1694949157
297,ceres,37.5949,-120.9577,17.67,85,0,3.09,US,1694949157
298,keflavik,64.0049,-22.5624,9.24,71,40,6.69,IS,1694949158
299,shimoda,34.6667,138.95,26.17,89,12,3.47,JP,1694949158
300,ingeniero jacobacci,-41.3427,-69.5448,0.45,50,3,9.35,AR,1694949158
301,ashtabula,41.7001,-80.7665,13.17,94,0,0.0,US,1694949158
302,mar del plata,-38.0023,-57.5575,12.27,72,83,3.13,AR,1694949000
303,berwick-upon-tweed,55.7833,-2.0,15.24,84,100,5.06,GB,1694948980
304,rio grande,-32.035,-52.0986,21.06,83,0,0.86,BR,1694949159
305,usogorsk,63.4106,48.6872,10.38,92,100,2.6,RU,1694949159
306,ilha de mocambique,-15.0342,40.7358,26.51,70,4,9.08,MZ,1694949159
307,kabo,7.6994,18.629,28.85,65,99,1.97,CF,1694949159
308,zhosaly,45.4878,64.0781,24.81,20,87,5.3,KZ,1694949159
309,saldanha,-33.0117,17.9442,14.47,57,5,5.26,ZA,1694949041
310,enriquillo,17.9,-71.2333,26.42,84,88,3.66,DO,1694949160
311,saint croix,17.7397,-64.7388,28.31,81,20,3.09,VI,1694949160
312,tual,-5.6667,132.75,25.78,82,9,7.79,ID,1694949160
313,esquina,-30.0144,-59.5272,20.28,76,0,1.53,AR,1694949160
314,mutoko,-17.397,32.2268,33.31,11,0,3.47,ZW,1694949160
315,anacortes,48.5126,-122.6127,14.86,85,100,3.09,US,1694949161
316,arteche,12.2645,125.4048,27.31,81,60,1.84,PH,1694949161
317,miles city,46.4083,-105.8406,14.54,51,0,5.66,US,1694949161
318,colon,9.3592,-79.9014,25.96,88,100,1.18,PA,1694949161
319,egilsstadir,65.2653,-14.3948,13.95,77,100,5.66,IS,1694949161
320,chunskiy,56.0815,99.6342,15.37,60,9,1.64,RU,1694949161
321,toliara,-23.35,43.6667,28.13,53,0,5.56,MG,1694949162
322,balaipungut,1.05,101.2833,28.65,71,91,1.23,ID,1694949162
323,wauchope,-31.45,152.7333,13.87,73,0,0.94,AU,1694949162
324,malakal,9.5334,31.6605,33.06,48,85,1.17,SS,1694949162
325,happy valley-goose bay,53.3168,-60.3315,12.17,94,100,6.17,CA,1694949162
326,baikunthpur,23.25,82.55,29.05,72,72,2.55,IN,1694949162
327,iaciara,-14.0958,-46.6317,27.12,41,40,2.52,BR,1694949163
328,champerico,14.3,-91.9167,25.71,84,61,1.42,GT,1694949163
329,st. john's,47.5649,-52.7093,20.99,98,100,7.2,CA,1694949163
330,north bend,43.4065,-124.2243,12.36,93,0,0.0,US,1694949163
331,hithadhoo,-0.6,73.0833,28.11,78,10,6.72,MV,1694948925
332,las praderas,-3.3348,-79.7984,22.45,86,70,0.86,EC,1694949163
333,kupang,-10.1667,123.5833,27.32,65,20,3.6,ID,1694949163
334,romblon,12.5751,122.2708,29.38,70,87,1.1,PH,1694949164
335,santa elena de uairen,4.6167,-61.1333,20.78,86,88,0.41,VE,1694949164
336,pereira barreto,-20.6383,-51.1092,27.63,37,0,3.2,BR,1694949164
337,machico,32.7,-16.7667,25.0,66,40,3.09,PT,1694949164
338,tocopilla,-22.092,-70.1979,18.21,57,0,0.13,CL,1694949164
339,udachny,66.4167,112.4,1.36,86,98,5.88,RU,1694949165
340,mana,5.6592,-53.7767,25.56,86,50,3.13,GF,1694949165
341,el calafate,-50.3408,-72.2768,-3.15,74,18,1.89,AR,1694948957
342,lander,42.833,-108.7307,12.77,44,0,2.06,US,1694949165
343,chipinge,-20.1883,32.6236,30.65,25,0,4.4,ZW,1694948885
344,necochea,-38.5473,-58.7368,9.32,54,31,6.95,AR,1694948923
345,lihue,21.9789,-159.3672,25.77,79,20,6.17,US,1694949165
346,alice springs,-23.7,133.8833,23.75,14,0,2.06,AU,1694949166
347,bubaque,11.2833,-15.8333,27.21,76,83,2.12,GW,1694949166
348,la sarre,48.8002,-79.1996,8.9,96,61,1.77,CA,1694949166
349,picui,-6.5106,-36.3469,25.58,63,43,9.75,BR,1694949166
350,sitka,57.0531,-135.33,12.94,76,100,7.72,US,1694949166
351,norderney,53.7,7.15,20.01,81,100,4.66,DE,1694949166
352,santo domingo de los colorados,-0.25,-79.15,19.74,95,100,0.7,EC,1694949167
353,sola,-13.8833,167.55,25.75,82,8,8.89,VU,1694949027
354,rakops,-21.0167,24.3333,33.18,6,0,2.93,BW,1694949164
355,haenam,34.5711,126.5989,23.72,88,83,0.85,KR,1694949167
356,ca mau,9.1769,105.15,27.28,78,50,2.54,VN,1694949167
357,mansa,29.9833,75.3833,30.02,63,78,6.2,IN,1694949167
358,port victoria,0.0939,33.9756,24.91,62,13,4.61,KE,1694949167
359,yarmouth,41.7057,-70.2286,17.2,78,0,3.13,US,1694949168
360,walla walla,46.0646,-118.343,23.53,38,0,4.63,US,1694949168
361,forest lake,45.2789,-92.9852,12.2,95,54,2.65,US,1694949168
362,chonchi,-42.6128,-73.8092,1.73,96,86,1.34,CL,1694949168
363,kourou,5.1552,-52.6478,27.03,80,45,3.61,GF,1694949168
364,rio verde de mato grosso,-18.9181,-54.8442,28.71,40,0,2.07,BR,1694949008
365,ad dawadimi,24.5077,44.3924,40.05,7,12,5.7,SA,1694949003
366,mersa matruh,31.3525,27.2453,29.31,52,0,7.29,EG,1694949169
367,kununurra,-15.7667,128.7333,23.99,50,42,0.0,AU,1694949169
368,newnham,-41.3833,147.1333,10.53,53,24,4.63,AU,1694949169
369,terrace,54.5163,-128.6035,11.23,100,100,6.17,CA,1694949169
370,vadso,70.0744,29.7487,8.49,82,100,5.04,NO,1694949170
371,new norfolk,-42.7826,147.0587,10.72,88,50,1.73,AU,1694949170
372,chapar,26.2667,90.4667,32.22,72,75,1.5,IN,1694949170
373,arfoud,31.4348,-4.2375,27.21,35,99,11.93,MA,1694949170
374,gaiman,-43.2897,-65.4929,5.71,91,19,4.51,AR,1694949170
375,pangai,-19.8,-174.35,23.59,72,98,8.43,TO,1694949170
376,zag,46.9441,99.165,7.11,60,99,2.52,MN,1694949171
377,vytegra,61.0064,36.4481,16.0,54,99,5.84,RU,1694949171
378,tokar,18.4254,37.729,40.13,18,13,7.27,SD,1694949171
379,selkirk,50.1436,-96.8845,9.48,97,92,2.53,CA,1694949171
380,tyukhtet,56.5389,89.3011,17.58,62,19,1.25,RU,1694949171
381,mufumbwe,-13.6833,24.8,37.13,10,0,2.56,ZM,1694949171
382,giyani,-23.3025,30.7187,25.85,41,88,4.5,ZA,1694949171
383,sungailiat,-1.85,106.1333,27.86,75,28,5.23,ID,1694949172
384,praia da vitoria,38.7333,-27.0667,22.64,65,100,5.38,PT,1694949172
385,shchyolkino,45.4291,35.8223,21.09,55,0,7.97,UA,1694949172
386,christchurch,-43.5333,172.6333,14.11,54,7,5.14,NZ,1694949108
387,t'aebaek,37.1759,128.9889,18.42,98,100,0.77,KR,1694949172
388,ancud,-41.8697,-73.8203,4.9,78,31,2.71,CL,1694949173
389,ardakan,32.31,54.0175,33.64,13,0,4.22,IR,1694949173
390,ad-damazin,11.7891,34.3592,31.33,55,41,0.76,SD,1694949015
391,aketi,2.7388,23.7833,21.65,99,100,1.83,CD,1694949173
392,mecatlan,20.2167,-97.6667,21.19,88,36,1.74,MX,1694949173
393,arapgir,39.0412,38.4952,25.17,25,0,2.46,TR,1694949173
394,fauske,67.2588,15.3918,11.02,91,99,2.35,NO,1694949033
395,angaur state,6.906,134.13,28.35,74,97,2.11,PW,1694949174
396,malango,-2.9627,119.9001,20.32,99,80,0.4,ID,1694949174
397,san julian,21.0167,-102.1667,14.23,85,86,0.86,MX,1694949174
398,menongue,-14.6585,17.691,36.0,7,0,3.18,AO,1694949174
399,undurkhaan,47.3194,110.6556,10.78,60,89,4.09,MN,1694949174
400,arkhangel'sk,64.5401,40.5433,11.95,92,100,3.1,RU,1694949174
401,vrangel',42.7297,133.0839,17.31,91,100,2.18,RU,1694949175
402,ambikapur,23.1167,83.2,26.02,84,95,1.14,IN,1694949175
403,chennevieres-sur-marne,48.797,2.5405,25.82,69,0,2.68,FR,1694949175
404,pachino,36.7186,15.0907,26.92,58,1,3.61,IT,1694949175
405,kondoa,-4.9,35.7833,31.13,25,12,1.98,TZ,1694949175
406,murray,40.6669,-111.888,18.8,51,0,2.57,US,1694949176
407,batangafo,7.3008,18.2833,29.12,63,92,1.86,CF,1694949176
408,lillehammer,61.1146,10.4674,12.7,60,69,2.1,NO,1694949176
409,bamboo flat,11.7,92.7167,25.95,89,100,8.31,IN,1694949176
410,san antonio de pale,-1.4014,5.6325,24.59,78,100,3.72,GQ,1694949176
411,sulejow,51.3544,19.8854,25.1,44,0,3.54,PL,1694949176
412,celestun,20.8667,-90.4,25.59,87,3,4.27,MX,1694949177
413,plettenberg bay,-34.0527,23.3716,15.9,50,74,6.23,ZA,1694949177
414,dawson creek,55.7666,-120.2362,10.32,71,0,2.06,CA,1694949177
415,camiri,-20.05,-63.5167,18.44,71,0,0.89,BO,1694949177
416,n'zeto,-7.2312,12.8666,25.14,76,99,2.53,AO,1694949177
417,itaituba,-4.2761,-55.9836,26.75,63,36,1.5,BR,1694949178
418,kazerun,29.6195,51.6541,36.35,6,0,4.58,IR,1694949178
419,abomsa,9.9833,39.9833,33.37,26,41,5.71,ET,1694949178
420,arraial do cabo,-22.9661,-42.0278,23.92,83,20,5.14,BR,1694949178
421,colonel hill,22.7667,-74.2167,28.44,75,19,4.25,BS,1694949178
422,matabhanga,26.3333,89.2167,34.47,60,32,1.72,IN,1694949179
423,yulinshi,38.2906,109.7494,22.87,36,100,1.5,CN,1694949179
424,balabac,7.9868,117.0645,28.06,75,10,2.46,PH,1694949179
425,turgen,43.4006,77.5933,20.07,55,51,2.5,KZ,1694949179
426,korsakov,46.6328,142.7813,17.91,91,100,1.39,RU,1694949179
427,kapa'a,22.0752,-159.319,26.18,79,20,6.17,US,1694949180
428,las heras,-46.5419,-68.9359,0.83,92,100,4.53,AR,1694949180
429,kerikeri,-35.2268,173.9474,11.06,89,7,0.45,NZ,1694949180
430,narvik,68.4384,17.4272,9.1,83,94,3.51,NO,1694949180
431,la paz,-16.5,-68.15,5.32,69,52,1.1,BO,1694948497
432,fortaleza,-3.7227,-38.5247,27.34,65,20,5.66,BR,1694949181
433,gornopravdinsk,60.05,69.9,19.89,51,71,2.46,RU,1694949181
434,coari,-4.085,-63.1414,25.42,65,26,0.97,BR,1694949181
435,ayancik,41.9447,34.5861,20.88,64,70,3.59,TR,1694949181
436,rio preto da eva,-2.6994,-59.6997,25.89,66,37,1.53,BR,1694949181
437,raduzhny,62.0961,77.475,19.47,49,58,2.84,RU,1694949182
438,kharp,66.8014,65.8081,6.23,86,100,5.58,RU,1694949016
439,zemio,5.0314,25.1361,21.42,97,100,1.92,CF,1694949182
440,santana,-0.0583,-51.1817,29.1,70,20,4.12,BR,1694949182
441,magadan,59.5667,150.8,4.74,92,100,3.22,RU,1694949182
442,concepcion,-36.827,-73.0498,5.73,84,41,2.32,CL,1694948921
443,dongola,19.1667,30.4833,39.96,10,0,4.91,SD,1694949183
444,khorugh,37.4897,71.553,24.78,14,0,4.06,TJ,1694949183
445,hadibu,12.65,54.0333,30.22,63,45,7.84,YE,1694949183
446,mil'kovo,55.6078,37.7956,18.11,38,32,2.89,RU,1694949183
447,fale old settlement,-9.3852,-171.2468,28.79,80,3,7.3,TK,1694949183
448,prince rupert,54.3161,-130.3201,14.05,83,100,18.01,CA,1694949183
449,frejus,43.4329,6.7352,29.83,67,59,7.36,FR,1694949168
450,mahenge,-8.6833,36.7167,30.22,29,53,2.43,TZ,1694949184
451,naze,28.3667,129.4833,25.65,81,89,3.05,JP,1694949184
452,chabahar,25.2919,60.643,28.52,75,50,5.19,IR,1694949184
453,tulagi,-9.0996,160.1476,27.14,77,100,5.42,SB,1694949184
454,bereket,39.2446,55.5154,30.34,15,0,5.04,TM,1694949184
455,candelaria,13.9311,121.4233,27.44,91,90,1.76,PH,1694949184
456,ndende,-2.4008,11.3581,31.75,49,92,2.07,GA,1694949185
457,san patricio,28.017,-97.5169,27.13,84,13,3.11,US,1694949185
458,bonthe,7.5264,-12.505,27.49,76,100,3.55,SL,1694949185
459,navasota,30.388,-96.0877,23.17,97,1,1.95,US,1694949185
460,haiku-pauwela,20.9219,-156.3051,24.47,83,100,5.14,US,1694949185
461,ke-macina,13.9623,-5.3572,32.98,47,91,2.45,ML,1694949185
462,bestobe,52.4994,73.0975,19.48,45,80,2.23,KZ,1694949186
463,karratha,-20.7377,116.8463,25.85,52,27,4.13,AU,1694949186
464,kabompo,-13.5927,24.2008,38.33,10,0,1.85,ZM,1694949186
465,vallenar,-28.5708,-70.7581,13.66,83,42,0.14,CL,1694949186
466,taipei,25.0478,121.5319,29.39,62,20,3.6,TW,1694949186
467,shitanjing,39.2342,106.3439,21.09,31,23,5.28,CN,1694949187
468,remire-montjoly,4.9167,-52.2667,27.02,83,0,1.54,GF,1694949187
469,long beach,33.767,-118.1892,20.32,90,100,0.0,US,1694949187
470,gamba,-2.65,10.0,25.49,75,96,3.35,GA,1694949187
471,kurayoshi,35.4333,133.8167,24.82,91,32,0.52,JP,1694949187
472,westport,41.1415,-73.3579,13.75,78,0,1.54,US,1694948888
473,lewiston orchards,46.3804,-116.9754,22.37,34,0,3.09,US,1694949188
474,chaman,30.9236,66.4512,33.85,9,0,4.11,PK,1694949188
475,myadzyel,54.8731,26.9359,20.46,50,3,5.21,BY,1694949188
476,goz beida,13.95,20.55,34.78,31,7,1.67,TD,1694949188
477,rufino,-34.2683,-62.7126,10.99,46,0,6.33,AR,1694949188
478,bonny,4.4522,7.1681,27.56,75,71,5.29,NG,1694949189
479,zarghun shahr,32.8473,68.4457,29.03,9,0,5.37,AF,1694949189
480,jalai nur,49.45,117.7,10.24,83,69,2.68,CN,1694949189
481,lata,40.1629,-8.3327,19.49,70,71,7.67,PT,1694949189
482,belmonte,-15.8631,-38.8828,25.61,68,9,3.51,BR,1694949189
483,wanning,18.8003,110.3967,27.84,85,97,2.65,CN,1694949189
484,midvagur,62.0511,-7.1939,11.46,87,75,6.17,FO,1694949189
485,lockwood,45.8191,-108.4149,18.69,41,0,6.69,US,1694949190
486,dehdasht,30.7949,50.5646,36.6,6,0,4.63,IR,1694949190
487,puerto madero,14.7208,-92.4215,25.85,81,39,1.39,MX,1694949190
488,kabalo,-6.05,26.9167,37.5,27,87,1.67,CD,1694949190
489,tubarjal,30.4999,38.216,34.1,14,0,3.99,SA,1694949190
490,queenstown,-31.8976,26.8753,16.71,21,35,4.01,ZA,1694949190
491,labytnangi,66.6572,66.4183,8.23,79,100,7.13,RU,1694948972
492,sena madureira,-9.0656,-68.6569,23.15,83,31,0.74,BR,1694949191
493,bom jardim,-7.7958,-35.5872,25.64,68,62,6.27,BR,1694949191
494,viedma,-40.8135,-62.9967,6.04,51,0,3.68,AR,1694949036
495,tangalle,6.024,80.7911,27.56,75,35,5.14,LK,1694949191
496,fregenal de la sierra,38.1692,-6.6537,20.01,50,74,6.61,ES,1694949191
497,aitape,-3.1374,142.3475,25.49,88,100,0.9,PG,1694949192
498,illizi,26.4833,8.4667,36.89,7,0,6.59,DZ,1694949192
499,cooper's town,26.8667,-77.5167,28.3,71,19,4.52,BS,1694949192
500,kencong,-8.2833,113.3667,24.5,83,64,1.85,ID,1694949192
501,lorengau,-2.0226,147.2712,27.2,72,78,6.33,PG,1694949192
502,key west,24.5557,-81.7826,29.0,72,20,3.6,US,1694949043
503,horta,38.5333,-28.6333,21.8,63,20,4.63,PT,1694949193
504,voskresenskoye,56.8381,45.4317,17.37,39,46,1.5,RU,1694949193
505,mantua,45.1667,10.7833,27.42,72,100,1.79,IT,1694949154
506,la ronge,55.1001,-105.2842,8.14,81,0,1.03,CA,1694949193
507,rethymno,35.3647,24.4714,31.78,57,74,4.84,GR,1694949193
508,revda,56.801,59.9303,19.8,47,61,1.1,RU,1694948794
509,znamenskoye,57.1281,73.8282,18.67,54,100,1.47,RU,1694949194
510,guigang,23.0964,109.6092,27.56,83,77,1.77,CN,1694949194
511,trondheim,63.4305,10.3951,14.4,64,59,1.34,NO,1694949194
512,chu,43.5983,73.7614,26.84,21,1,6.25,KZ,1694949194
513,carahue,-38.7,-73.1667,2.45,95,56,0.93,CL,1694949194
514,amarante do maranhao,-5.5667,-46.7422,26.91,62,18,2.89,BR,1694949195
515,raisen,23.3333,77.8,27.5,85,81,7.01,IN,1694949195
516,poso,-1.3959,120.7524,25.72,88,72,1.61,ID,1694949195
517,kedrovyy,56.1667,91.8167,19.23,67,31,1.46,RU,1694949195
518,mandalgovi,45.7625,106.2708,10.04,62,98,7.11,MN,1694949195
519,bonito,-21.1211,-56.4819,25.1,50,0,2.99,BR,1694949195
520,hanover,52.3705,9.7332,26.81,74,0,4.12,DE,1694948687
521,paine,-33.8167,-70.75,14.0,95,100,1.17,CL,1694949196
522,kaliua,-5.0606,31.7936,35.24,20,88,1.32,TZ,1694949196
523,upington,-28.4478,21.2561,20.21,24,0,3.09,ZA,1694949196
524,karachi,24.9056,67.0822,33.9,49,40,7.2,PK,1694948819
525,altamira,-3.2033,-52.2064,27.05,83,75,3.6,BR,1694949196
526,whitinsville,42.1112,-71.6662,13.1,90,0,2.52,US,1694949196
527,hinton,53.4001,-117.5857,10.59,55,87,2.42,CA,1694949197
528,uhlingen-birkendorf,47.7167,8.3167,26.95,67,88,1.77,DE,1694949197
529,boca do acre,-8.7522,-67.3978,23.75,73,23,1.06,BR,1694949197
530,eyl,7.9803,49.8164,34.32,43,75,9.69,SO,1694949197
531,ugento,39.9263,18.1574,30.72,51,11,4.02,IT,1694949197
532,albu kamal,34.45,40.9186,36.99,12,0,0.31,SY,1694949197
533,chalco,19.2667,-98.9,15.98,92,96,1.06,MX,1694949198
534,aswan,24.0934,32.907,39.11,11,0,4.61,EG,1694949099
535,bengkulu,-3.8004,102.2655,24.46,89,32,4.49,ID,1694949198
536,rabo de peixe,37.8,-25.5833,19.73,99,20,6.69,PT,1694949198
537,ishigaki,24.3448,124.1572,27.07,89,75,1.54,JP,1694949198
538,cockburn town,21.4612,-71.1419,28.58,73,90,4.85,TC,1694949198
539,alofi,-19.0595,-169.9187,22.94,78,9,4.63,NU,1694949199
540,tolanaro,-25.0319,46.9987,28.14,52,0,4.78,MG,1694949199
541,gadzhiyevo,69.2551,33.3362,9.06,69,100,0.82,RU,1694949199
542,saint-philippe,-21.3585,55.7679,25.77,74,45,5.69,RE,1694949199
543,canyon lake,29.8752,-98.2625,21.61,91,2,2.24,US,1694949199
544,mogadishu,2.0371,45.3438,27.22,69,68,7.59,SO,1694949199
545,dalianwan,39.0286,121.695,24.02,69,0,2.0,CN,1694949199
546,aqadyr,48.2553,72.8483,17.64,36,79,3.44,KZ,1694949200
547,aripuana,-9.1667,-60.6333,25.45,43,6,0.3,BR,1694949200
548,frenda,35.0654,1.0495,33.43,12,12,12.82,DZ,1694949200
549,marang,5.2056,103.2059,27.59,78,83,0.58,MY,1694949200
550,acarau,-2.8856,-40.12,27.96,61,4,7.67,BR,1694949200
551,lazaro cardenas,17.9583,-102.2,25.24,90,84,2.69,MX,1694949200
552,prieska,-29.6641,22.7474,19.49,18,4,3.02,ZA,1694949201
553,barcelona,41.3888,2.159,29.58,73,20,5.14,ES,1694948610
554,tobelo,1.7284,128.0095,26.23,84,100,2.43,ID,1694949201
555,binhe,32.6883,112.8275,28.03,65,100,2.18,CN,1694949201
556,idri,27.5,13.2667,33.14,14,4,4.34,LY,1694949201
557,guerrero negro,27.9769,-114.0611,19.25,83,94,6.24,MX,1694949201
558,dowlatabad,32.7998,51.6955,30.82,15,0,3.09,IR,1694949202
559,alexandria,31.2156,29.9553,27.21,70,0,5.24,EG,1694948439
560,aydincik,36.1437,33.3202,31.7,29,0,1.71,TR,1694949202
561,tchintabaraden,15.8969,5.7985,34.61,35,95,4.19,NE,1694949202
562,beira,-19.8436,34.8389,27.05,74,20,7.72,MZ,1694949202
563,yunyang,33.4474,112.7142,27.21,68,100,1.48,CN,1694949202
564,vanimo,-2.6741,141.3028,25.67,88,100,2.27,PG,1694949203
565,los frentones,-26.4077,-61.4137,25.34,47,0,3.23,AR,1694949203
566,port hedland,-20.3167,118.5667,25.03,83,19,4.63,AU,1694949203
567,bakchar,57.0186,82.0711,16.01,78,100,0.56,RU,1694949203
568,karaton,-6.3424,106.1045,26.8,66,72,1.12,ID,1694949203
569,kuanda,56.3161,116.0806,11.13,70,39,0.58,RU,1694949203
570,khanty-mansiysk,61.0042,69.0019,21.06,43,0,3.13,RU,1694949102
571,banjarmasin,-3.3244,114.591,26.08,68,99,2.53,ID,1694949204
572,houghton,47.1219,-88.569,13.71,97,100,3.09,US,1694948982
573,villa gesell,-37.2639,-56.973,11.7,67,81,2.96,AR,1694949204
574,sao caetano de odivelas,-0.75,-48.02,26.74,81,46,3.84,BR,1694949204
575,gantang,26.92,119.6333,25.87,93,22,0.93,CN,1694949204
576,ciudad real,39.0,-4.0,21.03,91,99,4.47,ES,1694949204
577,yakeshi,49.2833,120.7333,11.82,77,97,1.09,CN,1694949205
578,tromso,69.6496,18.957,7.01,76,75,3.09,NO,1694949205
579,senirkent,38.1044,30.5486,26.03,25,1,4.59,TR,1694949205
