City_ID,City,Lat,Lng,Max Temp,Humidity,Cloudiness,Wind Speed,Country,Date
0,lospalos,-8.5186,127.0025,20.7,79,41,3.4,TL,1694959906
1,hithadhoo,-0.6,73.0833,28.16,78,47,7.19,MV,1694959907
2,abepura,-2.6333,140.5833,25.45,83,40,1.03,ID,1694959907
3,gamay,12.3854,125.2979,26.59,85,41,1.28,PH,1694959907
4,novyy urgal,51.0736,132.5642,12.19,74,100,1.1,RU,1694959907
5,port-aux-francais,-49.35,70.2167,5.85,96,100,16.24,TF,1694959907
6,mossel bay,-34.1831,22.146,15.44,61,2,6.37,ZA,1694959818
7,holualoa,19.6228,-155.9522,23.21,74,56,1.79,US,1694959908
8,west island,-12.1568,96.8225,25.99,73,75,7.72,CC,1694959908
9,wanganui,-39.9333,175.05,14.22,81,90,17.43,NZ,1694959908
10,bilibino,68.0546,166.4372,4.2,66,100,1.06,RU,1694959646
11,waitangi,-43.9535,-176.5597,11.01,92,100,3.13,NZ,1694959908
12,iqaluit,63.7506,-68.5145,-0.17,71,9,3.58,CA,1694959908
13,keflavik,64.0049,-22.5624,9.95,66,75,8.23,IS,1694959909
14,puerto natales,-51.7236,-72.4875,2.7,67,10,1.68,CL,1694959909
15,igarka,67.4667,86.5833,5.12,67,100,2.64,RU,1694959909
16,lihue,21.9789,-159.3672,25.77,77,0,6.17,US,1694959812
17,labrador city,52.9463,-66.9114,13.32,76,100,4.24,CA,1694959909
18,cabo san lucas,22.8909,-109.9124,28.2,74,0,2.74,MX,1694959909
19,edinburgh of the seven seas,-37.0676,-12.3116,12.66,80,8,8.1,SH,1694959910
20,ust-nera,64.5667,143.2,1.81,77,88,0.33,RU,1694959910
21,shubarshi,48.5872,57.1869,17.87,44,58,3.9,KZ,1694959910
22,keelung,25.1283,121.7419,28.92,85,0,1.83,TW,1694959910
23,grytviken,-54.2811,-36.5092,-1.7,97,100,6.55,GS,1694959910
24,nar'yan-mar,67.6713,53.087,7.4,72,5,2.38,RU,1694959911
25,hawaiian paradise park,19.5933,-154.9731,22.8,95,75,0.0,US,1694959911
26,almeirim,-1.5233,-52.5817,32.14,52,38,3.08,BR,1694959904
27,okhotsk,59.3833,143.3,6.07,68,11,5.9,RU,1694959911
28,alaghsas,17.0187,8.0168,37.39,21,9,2.62,NE,1694959911
29,hamilton,39.1834,-84.5333,19.58,86,0,1.54,US,1694959445
30,flin flon,54.7682,-101.865,11.65,71,93,2.89,CA,1694959912
31,isafjordur,66.0755,-23.124,10.02,57,40,4.63,IS,1694959912
32,nikolayevsk-on-amure,53.1406,140.73,7.95,79,100,0.39,RU,1694959912
33,axim,4.8699,-2.2405,27.12,75,100,4.54,GH,1694959912
34,bethel,41.3712,-73.414,20.42,68,0,0.0,US,1694959912
35,port elizabeth,-33.918,25.5701,19.5,56,16,3.58,ZA,1694959566
36,atafu village,-8.5421,-172.5159,28.56,79,6,6.61,TK,1694959913
37,corinto,37.9407,22.9573,27.16,43,100,3.25,GR,1694959654
38,colonia,50.9333,6.95,28.31,52,0,3.09,DE,1694959824
39,box elder,41.5005,-112.8764,19.21,44,9,3.17,US,1694959913
40,talnakh,69.4865,88.3972,3.45,73,100,2.87,RU,1694959913
41,hermanus,-34.4187,19.2345,15.45,66,7,4.71,ZA,1694959908
42,mbandaka,0.0487,18.2603,22.76,89,100,1.65,CD,1694959914
43,tazovsky,67.4667,78.7,7.19,79,100,9.34,RU,1694959867
44,salalah,17.0151,54.0924,28.05,82,39,3.57,OM,1694959914
45,college,64.8569,-147.8028,8.83,81,100,2.57,US,1694959914
46,khamis mushait,18.3064,42.7292,29.58,8,40,4.12,SA,1694959914
47,east london,-33.0153,27.9116,18.52,55,0,8.75,ZA,1694959915
48,stanley,54.868,-1.6985,17.66,87,75,3.6,GB,1694959915
49,padangsidempuan,1.3667,99.2667,22.33,98,99,0.54,ID,1694959915
50,blackmans bay,-43.0167,147.3167,9.07,72,97,2.84,AU,1694959915
51,koubia,11.5833,-11.9,26.17,78,82,1.57,GN,1694959915
52,margaret river,-33.95,115.0667,12.23,69,66,4.76,AU,1694959916
53,birobidzhan,48.8,132.95,15.09,76,100,0.15,RU,1694959916
54,mahanoro,-19.9,48.8,23.83,74,0,3.76,MG,1694959744
55,puerto baquerizo moreno,-0.9,-89.6,23.55,83,100,4.12,EC,1694959813
56,minas de marcona,-15.2119,-75.1103,17.05,68,88,3.39,PE,1694959916
57,adamstown,-25.066,-130.1015,18.56,69,99,6.67,PN,1694959808
58,fortuna,40.5982,-124.1573,14.4,97,100,0.0,US,1694959917
59,phan rang-thap cham,11.5667,108.9833,26.49,85,58,1.66,VN,1694959917
60,katsuura,35.1333,140.3,26.44,88,6,6.41,JP,1694959917
61,invercargill,-46.4,168.35,8.9,73,78,6.26,NZ,1694959917
62,bayganin,48.6947,55.8742,18.91,43,77,1.11,KZ,1694959917
63,tikrit,34.6071,43.6782,38.18,11,0,3.7,IQ,1694959918
64,kingston,17.997,-76.7936,31.8,74,79,0.45,JM,1694959918
65,krasnogorskoye,52.2953,86.1979,12.27,91,50,1.33,RU,1694959725
66,sur,22.5667,59.5289,31.35,61,86,2.66,OM,1694959738
67,newman,37.3138,-121.0208,16.7,87,6,1.57,US,1694959918
68,pisco,-13.7,-76.2167,20.03,77,75,2.57,PE,1694959918
69,nizhnesortymskiy,62.4397,71.7603,15.66,67,73,4.66,RU,1694959918
70,talara,-4.5772,-81.2719,24.42,69,0,6.29,PE,1694959919
71,baruun-urt,46.6806,113.2792,9.71,90,97,2.83,MN,1694959919
72,port lincoln,-34.7333,135.8667,14.62,84,99,6.45,AU,1694959919
73,inhambane,-23.865,35.3833,22.99,73,75,9.26,MZ,1694959919
74,avarua,-21.2078,-159.775,21.03,83,75,3.6,CK,1694959919
75,san patricio,28.017,-97.5169,26.92,71,19,3.61,US,1694959920
76,batesville,35.7698,-91.641,19.97,71,0,2.57,US,1694959920
77,alice springs,-23.7,133.8833,20.75,18,0,3.6,AU,1694959920
78,port mathurin,-19.6833,63.4167,22.94,78,1,9.77,MU,1694959920
79,rongelap,11.1635,166.8941,28.82,78,100,7.36,MH,1694959920
80,olonkinbyen,70.9221,-8.7187,3.31,74,98,8.18,SJ,1694959921
81,lazaro cardenas,17.9583,-102.2,25.57,86,97,2.52,MX,1694959921
82,bredasdorp,-34.5322,20.0403,17.28,49,27,6.08,ZA,1694959921
83,lebu,-37.6167,-73.65,9.16,66,6,1.67,CL,1694959921
84,caleta de carquin,-11.0925,-77.6267,19.95,83,97,3.53,PE,1694959921
85,washington,47.5001,-120.5015,20.22,44,100,2.38,US,1694959670
86,ushuaia,-54.8,-68.3,0.52,80,99,1.14,AR,1694959803
87,codrington,-38.2667,141.9667,11.86,92,100,2.54,AU,1694959922
88,touros,-5.1989,-35.4608,29.52,60,33,8.91,BR,1694959922
89,auki,-8.7676,160.7034,24.58,90,100,2.21,SB,1694959922
90,cururupu,-1.8283,-44.8683,30.25,58,66,3.83,BR,1694959922
91,sinabang,2.4803,96.3801,26.0,82,100,1.0,ID,1694959923
92,tolanaro,-25.0319,46.9987,25.18,67,0,3.84,MG,1694959923
93,cefalu,38.0386,14.0229,35.88,62,52,1.79,IT,1694959923
94,arraial do cabo,-22.9661,-42.0278,27.92,65,0,6.69,BR,1694959923
95,kone,-21.0595,164.8658,19.59,88,15,2.14,NC,1694959923
96,trinidad,-14.8333,-64.9,36.03,31,3,4.55,BO,1694959924
97,maralal,1.0968,36.698,23.91,42,93,2.85,KE,1694959924
98,constantia,44.1833,28.65,22.61,58,97,5.95,RO,1694959877
99,usevia,-7.1,31.2333,35.44,17,76,2.25,TZ,1694959924
100,kodiak,57.79,-152.4072,9.73,62,20,10.29,US,1694959924
101,wajir,1.7471,40.0573,34.66,27,25,6.6,KE,1694959924
102,tsiroanomandidy,-18.7667,46.0333,29.91,23,8,2.49,MG,1694959925
103,praia da vitoria,38.7333,-27.0667,20.48,63,100,5.82,PT,1694959704
104,wailua homesteads,22.0669,-159.378,25.44,78,0,6.17,US,1694959925
105,malegaon,20.55,74.5333,24.07,83,100,3.51,IN,1694959925
106,savanna-la-mar,18.219,-78.1332,29.99,65,51,0.93,JM,1694959926
107,nemuro,43.3236,145.575,18.21,97,100,6.34,JP,1694959926
108,saipan,15.1355,145.701,27.39,94,40,3.09,MP,1694959926
109,broome,42.2506,-75.833,14.82,95,0,0.0,US,1694959926
110,papatowai,-46.5619,169.4708,7.42,73,97,10.9,NZ,1694959926
111,tiksi,71.6872,128.8694,-0.22,90,100,3.71,RU,1694959926
112,chongwe,-15.3292,28.682,34.32,10,0,5.39,ZM,1694959921
113,rio grande,-32.035,-52.0986,27.06,77,70,2.83,BR,1694959927
114,pandan,14.0453,124.1694,27.88,80,84,2.72,PH,1694959927
115,par naogaon,24.8029,88.9508,31.03,68,98,1.53,BD,1694959927
116,ribeira grande,38.5167,-28.7,23.22,53,20,5.66,PT,1694959927
117,cherepovets,59.1333,37.9,16.01,63,0,4.0,RU,1694959882
118,praia,14.9215,-23.5087,29.3,61,40,6.17,CV,1694959928
119,prince rupert,54.3161,-130.3201,13.05,94,100,16.98,CA,1694959928
120,ixtapa,20.7,-105.2,25.13,100,40,0.0,MX,1694959928
121,alta sierra,35.7291,-118.5495,8.39,54,29,1.17,US,1694959928
122,itupiranga,-5.1347,-49.3267,33.18,39,8,1.59,BR,1694959928
123,albany,42.6001,-73.9662,18.23,77,99,0.45,US,1694959929
124,nyurba,63.2842,118.3319,3.61,98,100,4.93,RU,1694959929
125,karratha,-20.7377,116.8463,24.43,68,66,4.9,AU,1694959929
126,anadyr,64.75,177.4833,-2.72,93,0,2.0,RU,1694959683
127,longyearbyen,78.2186,15.6401,-1.09,80,75,3.09,SJ,1694959929
128,whitehorse,60.7161,-135.0538,8.43,71,75,6.69,CA,1694959929
129,puerto ayora,-0.7393,-90.3518,25.98,93,84,2.24,EC,1694959930
130,tura,25.5198,90.2201,24.99,90,29,1.41,IN,1694959930
131,weno,7.4515,151.8468,24.97,88,75,1.54,FM,1694959930
132,dudinka,69.4058,86.1778,3.68,76,100,3.32,RU,1694959930
133,lucas,41.6501,-83.6666,18.98,74,75,1.54,US,1694959930
134,sejenane,37.0572,9.2381,38.53,20,7,1.71,TN,1694959931
135,hassi messaoud,31.6804,6.0729,40.92,11,0,3.09,DZ,1694959931
136,nichinan,31.6,131.3667,25.25,88,2,1.7,JP,1694959931
137,merizo village,13.2658,144.6691,26.88,93,100,4.0,GU,1694959931
138,kavaratti,10.5669,72.642,27.52,81,52,4.14,IN,1694959931
139,arawa,-6.2132,155.5367,23.35,90,99,2.25,PG,1694959931
140,hammerfest,70.6634,23.6821,8.25,71,40,4.63,NO,1694959932
141,muynoq,43.7683,59.0214,19.75,47,81,5.12,UZ,1694959932
142,udachny,66.4167,112.4,-3.23,91,81,3.31,RU,1694959932
143,cabedelo,-6.9811,-34.8339,27.37,69,18,7.71,BR,1694959932
144,la passe,45.5549,-0.8967,27.13,72,100,9.86,FR,1694959932
145,whangarei,-35.7317,174.3239,8.63,97,38,1.98,NZ,1694959932
146,uturoa,-16.7333,-151.4333,25.32,84,6,4.86,PF,1694959933
147,sorsk,54.0033,90.2467,9.5,83,46,1.34,RU,1694959642
148,joshimath,30.5667,79.5667,20.52,86,99,0.96,IN,1694959933
149,dryden,49.7833,-92.7503,10.16,100,100,1.03,CA,1694959889
150,georgetown,5.4112,100.3354,28.86,78,20,0.0,MY,1694959716
151,bodaybo,57.8506,114.1933,7.63,72,13,1.64,RU,1694959933
152,sao vicente,-23.9631,-46.3919,33.1,54,0,0.92,BR,1694959933
153,orenburg,51.7727,55.0988,18.01,48,100,2.22,RU,1694959934
154,hadibu,12.65,54.0333,28.66,67,18,6.21,YE,1694959934
155,tsiombe,-25.3,45.4833,26.03,56,0,4.66,MG,1694959934
156,seymour,38.9592,-85.8903,18.62,85,100,1.31,US,1694959934
157,el nido,11.1858,119.3956,27.59,82,100,2.46,PH,1694959934
158,agat village,13.3886,144.6585,27.09,90,75,0.0,GU,1694959935
159,mosjoen,65.836,13.1908,11.29,66,40,0.51,NO,1694959935
160,esquel,-42.9,-71.3167,1.96,78,33,2.55,AR,1694959935
161,xiaoweizhai,26.1903,107.5125,21.37,96,16,1.47,CN,1694959935
162,quellon,-43.1167,-73.6167,7.4,67,7,3.5,CL,1694959935
163,al fuwayliq,26.4432,43.2534,40.12,9,83,5.92,SA,1694959935
164,lethem,3.3803,-59.7968,32.07,54,15,2.78,GY,1694959936
165,aykhal,66.0,111.5,-4.29,97,41,3.46,RU,1694959936
166,kirakira,-10.4544,161.9205,26.31,85,100,4.27,SB,1694959936
167,susuman,62.7833,148.1667,-0.32,87,85,2.27,RU,1694959936
168,ilulissat,69.2167,-51.1,3.01,75,40,2.06,GL,1694959937
169,thompson,55.7435,-97.8558,11.09,100,40,2.06,CA,1694959937
170,hola,51.5377,23.1902,26.1,45,92,3.33,PL,1694959937
171,nagqu,31.5,92.0,3.83,95,88,2.2,CN,1694959937
172,nova sintra,14.8667,-24.7167,22.67,73,26,6.37,CV,1694959937
173,isangel,-19.55,169.2667,22.4,86,100,6.08,VU,1694959937
174,happy valley-goose bay,53.3168,-60.3315,13.17,88,100,8.23,CA,1694959938
175,kalmunai,7.4167,81.8167,27.55,73,100,7.14,LK,1694959938
176,enewetak,11.3474,162.3373,28.88,79,95,7.85,MH,1694959938
177,vilyuchinsk,52.9306,158.4028,10.14,75,32,6.91,RU,1694959938
178,badger,64.8,-147.5333,8.78,84,100,2.57,US,1694959938
179,saldanha,-33.0117,17.9442,17.03,60,0,5.6,ZA,1694959938
180,leava,-14.3,-178.1667,27.17,75,30,9.88,WF,1694959939
181,muncar,-8.4333,114.3333,23.57,91,36,1.14,ID,1694959939
182,medina,24.4686,39.6142,42.24,7,40,1.03,SA,1694959445
183,nuuk,64.1835,-51.7216,3.34,70,75,1.03,GL,1694959939
184,la sarre,48.8002,-79.1996,13.26,86,100,2.0,CA,1694959939
185,reitz,-27.8014,28.4273,22.02,11,4,4.31,ZA,1694959939
186,la palma,33.8464,-118.0467,20.5,86,100,2.06,US,1694959940
187,kavalerovo,44.2661,135.0572,14.44,99,100,0.53,RU,1694959940
188,linhares,-19.3911,-40.0722,26.45,66,89,2.9,BR,1694959940
189,hinton,53.4001,-117.5857,11.63,46,41,3.45,CA,1694959940
190,egilsstadir,65.2653,-14.3948,13.95,72,100,4.63,IS,1694959940
191,bambari,5.768,20.6757,23.32,88,100,2.96,CF,1694959800
192,mukalla,14.5425,49.1242,34.82,52,51,3.02,YE,1694959941
193,portland,45.5234,-122.6762,12.86,87,0,0.0,US,1694959941
194,chernyshevskiy,63.0128,112.4714,1.47,72,100,5.71,RU,1694959941
195,lushun,38.8,121.2667,23.12,74,5,3.51,CN,1694959941
196,kalecik,40.0972,33.4083,26.34,25,0,3.23,TR,1694959941
197,kailua-kona,19.6406,-155.9956,25.28,75,54,1.79,US,1694959823
198,yermentau,51.6214,73.1069,14.51,57,84,1.86,KZ,1694959942
199,fisterra,42.9049,-9.2629,18.75,88,100,14.49,ES,1694959942
200,qaqortoq,60.7167,-46.0333,3.69,42,0,1.52,GL,1694959942
201,lompoc,34.6391,-120.4579,17.79,81,95,4.47,US,1694959942
202,punta arenas,-53.15,-70.9167,3.06,48,100,5.14,CL,1694959896
203,sesheke,-17.4759,24.2968,37.37,8,0,4.11,ZM,1694959942
204,sao gabriel da cachoeira,-0.1303,-67.0892,32.75,50,33,0.74,BR,1694959943
205,stuttgart,48.7823,9.177,31.68,44,0,1.54,DE,1694959208
206,mil'kovo,55.6078,37.7956,17.73,43,96,3.39,RU,1694959943
207,laojunmiao,39.8333,97.7333,15.35,29,100,1.17,CN,1694959943
208,magong,23.5654,119.5863,27.82,81,0,0.88,TW,1694959943
209,polyarnyy,69.1989,33.4478,9.29,72,100,3.33,RU,1694959943
210,jaciara,-15.9653,-54.9683,36.85,24,11,3.19,BR,1694959839
211,talakan,50.3167,130.3667,12.55,96,100,1.14,RU,1694959944
212,al jawf,29.5,38.75,35.98,12,0,0.93,SA,1694959944
213,tofol,5.3248,163.0078,28.23,73,100,1.57,FM,1694959944
214,laurinburg,34.7741,-79.4628,23.26,74,75,1.54,US,1694959944
215,diego martin,10.7005,-61.5342,32.49,59,27,0.81,TT,1694959945
216,gulf shores,30.246,-87.7008,28.03,79,20,1.54,US,1694959945
217,isabela,6.7085,121.9711,26.1,85,92,1.13,PH,1694959945
218,yellowknife,62.456,-114.3525,11.9,97,99,2.68,CA,1694959810
219,port douglas,-16.4833,145.4667,21.42,83,80,5.83,AU,1694959945
220,necochea,-38.5473,-58.7368,12.62,51,98,5.97,AR,1694959946
221,anna regina,7.2644,-58.5077,30.41,68,62,4.86,GY,1694959946
222,aasiaat,68.7098,-52.8699,2.04,79,72,2.01,GL,1694959946
223,yei,4.095,30.6779,28.36,60,63,0.76,SS,1694959946
224,nantucket,41.2835,-70.0995,21.72,69,0,6.17,US,1694959946
225,mogadishu,2.0371,45.3438,26.14,77,89,7.94,SO,1694959868
226,ghat,24.9647,10.1728,34.7,8,0,3.13,LY,1694959947
227,astravyets,54.6138,25.9554,22.22,45,17,4.22,BY,1694959947
228,afif,23.9065,42.9172,38.33,9,71,3.36,SA,1694959826
229,utrik,11.2278,169.8474,28.69,81,100,9.5,MH,1694959947
230,pico truncado,-46.7949,-67.9573,3.01,62,100,4.45,AR,1694959947
231,ciudad melchor muzquiz,27.8833,-101.5167,24.43,68,43,1.7,MX,1694959948
232,la malbaie,47.6575,-70.1559,18.47,60,5,3.06,CA,1694959948
233,fale old settlement,-9.3852,-171.2468,28.12,81,77,7.08,TK,1694959948
234,pacific grove,36.6177,-121.9166,16.17,88,40,0.89,US,1694959948
235,crane,31.3974,-102.3501,22.19,66,12,1.99,US,1694959948
236,jamestown,42.097,-79.2353,17.77,83,0,2.06,US,1694959847
237,kiruna,67.8557,20.2251,5.51,65,69,6.17,SE,1694959949
238,carnarvon,-24.8667,113.6333,19.27,78,83,11.22,AU,1694959949
239,alofi,-19.0595,-169.9187,23.72,73,34,9.34,NU,1694959949
240,hasaki,35.7333,140.8333,27.38,87,32,7.02,JP,1694959949
241,fairbanks,64.8378,-147.7164,8.84,82,100,2.57,US,1694959803
242,ivankiv,50.9386,29.8943,24.15,31,0,3.3,UA,1694959949
243,ceres,37.5949,-120.9577,16.69,86,0,2.57,US,1694959949
244,klyuchi,52.2667,79.1667,15.67,64,46,2.29,RU,1694959950
245,punta del este,-34.9667,-54.95,18.06,82,0,5.66,UY,1694959950
246,letlhakeng,-24.0944,25.0298,31.64,5,0,4.08,BW,1694959950
247,oliver,49.1831,-119.5524,22.14,63,99,1.03,CA,1694959950
248,lupiro,-8.3833,36.6667,34.84,25,17,3.06,TZ,1694959950
249,kununurra,-15.7667,128.7333,19.99,64,5,0.0,AU,1694959950
250,afaahiti,-17.75,-149.2833,22.93,89,36,6.16,PF,1694959951
251,carutapera,-1.195,-46.02,31.24,56,80,4.49,BR,1694959951
252,vorgashor,67.5833,63.95,4.89,80,100,5.02,RU,1694959951
253,belmonte,-15.8631,-38.8828,26.32,65,58,4.32,BR,1694959951
254,paradip garh,20.3167,86.6167,28.48,83,100,2.08,IN,1694959952
255,ulsteinvik,62.3432,5.8487,17.17,66,94,0.89,NO,1694959952
256,viedma,-40.8135,-62.9967,12.38,38,0,3.7,AR,1694959952
257,argo,37.6333,22.7333,27.66,38,100,3.61,GR,1694959952
258,rabigh,22.7986,39.0349,34.52,50,13,7.21,SA,1694959953
259,severo-yeniseyskiy,60.3725,93.0408,12.55,71,100,0.04,RU,1694959953
260,kamikawa,43.84,142.7711,18.86,89,100,1.66,JP,1694959953
261,timbuktu,16.7735,-3.0074,38.95,24,43,3.61,ML,1694959953
262,olinda,-8.0089,-34.8553,24.85,94,100,7.72,BR,1694959935
263,novyy urengoy,66.0833,76.6333,10.24,77,100,6.94,RU,1694959831
264,kingscliff,-28.2667,153.5667,16.89,82,2,3.09,AU,1694959953
265,fort st. john,56.2499,-120.8529,9.94,53,20,5.66,CA,1694959954
266,port blair,11.6667,92.75,26.23,88,100,7.65,IN,1694959954
267,tokar,18.4254,37.729,36.09,32,19,5.35,SD,1694959891
268,sanibel,26.449,-82.0223,32.23,79,7,1.34,US,1694959954
269,hotan,37.0997,79.9269,27.3,18,66,2.88,CN,1694959954
270,tinogasta,-28.0632,-67.5649,26.63,10,0,3.04,AR,1694959955
271,choyr,46.3611,108.3611,8.67,74,96,4.32,MN,1694959955
272,tabuk,17.4189,121.4443,24.53,91,100,1.63,PH,1694959309
273,new plymouth,-39.0667,174.0833,12.4,92,84,8.63,NZ,1694959955
274,olmaliq,40.8447,69.5983,22.24,26,63,1.15,UZ,1694959955
275,cestos city,5.46,-9.5828,27.44,78,92,4.87,LR,1694959955
276,markovo,57.3206,107.0881,10.85,88,78,0.92,RU,1694959956
277,kimbe,-5.5502,150.1429,22.08,84,23,3.14,PG,1694959883
278,northam,51.0333,-4.2167,18.7,97,100,4.28,GB,1694959956
279,bangassou,4.7413,22.8184,20.87,99,100,1.55,CF,1694959717
280,nelson bay,-32.7167,152.15,18.89,83,0,2.24,AU,1694959956
281,saint-francois,46.4154,3.9054,30.38,45,0,4.12,FR,1694959956
282,mitu,1.1983,-70.1733,24.61,90,92,0.27,CO,1694959957
283,biga,40.2281,27.2422,28.36,54,40,9.01,TR,1694959957
284,bunia,1.5667,30.25,27.62,47,6,1.8,CD,1694959704
285,ellsworth,44.5434,-68.4195,20.35,73,0,2.57,US,1694959957
286,nizhneudinsk,54.9076,99.0276,10.18,76,12,1.59,RU,1694959957
287,lerwick,60.1545,-1.1494,14.0,81,68,8.92,GB,1694959957
288,lata,40.1629,-8.3327,22.26,80,100,4.18,PT,1694959958
289,kamaishi,39.2667,141.8833,24.0,94,27,2.96,JP,1694959958
290,el granada,37.5027,-122.4694,17.19,91,40,0.0,US,1694959958
291,santiago de cao,-7.9589,-79.2392,21.07,78,50,5.66,PE,1694959958
292,slave lake,55.2834,-114.769,6.99,72,0,1.03,CA,1694959958
293,rehoboth,-23.3167,17.0833,30.31,8,0,6.27,NA,1694959959
294,itacare,-14.2775,-38.9967,26.79,61,6,3.89,BR,1694959959
295,siret,47.95,26.0667,25.8,78,0,6.26,RO,1694959959
296,kerikeri,-35.2268,173.9474,11.06,90,6,0.89,NZ,1694959959
297,chonchi,-42.6128,-73.8092,7.29,80,18,1.43,CL,1694959959
298,iskateley,67.6803,53.1512,7.32,72,5,2.43,RU,1694959960
299,nova vicosa,-17.8919,-39.3719,26.34,65,41,5.16,BR,1694959960
300,geraldton,-28.7667,114.6,14.23,82,40,4.12,AU,1694959960
301,villeneuve-sur-lot,44.5,0.6667,30.03,35,100,5.24,FR,1694959960
302,carauari,-4.8828,-66.8958,34.26,43,7,1.16,BR,1694959960
303,jackson,42.4165,-122.8345,17.22,70,0,0.0,US,1694959961
304,kapa'a,22.0752,-159.319,26.18,77,0,6.17,US,1694959961
305,albenga,44.0529,8.216,27.86,71,40,4.12,IT,1694959961
306,namibe,-15.1961,12.1522,24.35,78,40,0.0,AO,1694959961
307,doka,13.5167,35.7667,31.82,56,19,1.25,SD,1694959962
308,haiku-pauwela,20.9219,-156.3051,24.47,84,75,5.66,US,1694959962
309,lucapa,-8.4192,20.7447,32.84,30,100,2.43,AO,1694959962
310,turpan,42.9333,89.1667,26.69,23,97,1.79,CN,1694959820
311,nuku'alofa,-21.1333,-175.2,22.19,88,75,4.12,TO,1694959827
312,port-vila,-17.7338,168.3219,23.29,83,100,6.82,VU,1694959962
313,eaglehawk,-36.7333,144.25,11.14,85,24,2.18,AU,1694959963
314,prieska,-29.6641,22.7474,22.36,14,0,3.74,ZA,1694959963
315,mount pearl,47.5166,-52.7813,23.19,88,75,5.14,CA,1694959963
316,queenstown,-31.8976,26.8753,17.7,21,0,3.96,ZA,1694959963
317,tromso,69.6496,18.957,7.01,81,75,3.6,NO,1694959963
318,southwick,42.0548,-72.7704,20.77,73,0,2.57,US,1694959964
319,kaithal,29.8,76.3833,25.71,81,6,2.94,IN,1694959964
320,kruisfontein,-34.0033,24.7314,18.27,53,8,8.12,ZA,1694959964
321,lorengau,-2.0226,147.2712,26.92,75,100,5.38,PG,1694959964
322,dauphin,51.1494,-100.0502,9.08,100,0,2.57,CA,1694959964
323,kumylzhenskaya,49.8809,42.5898,22.77,35,94,2.84,RU,1694959965
324,zara,44.1197,15.2422,28.34,54,20,3.6,HR,1694959738
325,mariental,-24.6333,17.9667,26.48,11,0,3.91,NA,1694959965
326,flying fish cove,-10.4217,105.6791,23.82,83,75,5.14,CX,1694959965
327,khovd,48.0056,91.6419,10.36,63,87,2.24,MN,1694959965
328,zhangye,38.9342,100.4517,18.03,31,26,1.79,CN,1694959965
329,thunder bay,48.4001,-89.3168,11.99,93,75,2.57,CA,1694959966
330,moranbah,-22.0016,148.0466,15.34,86,0,4.77,AU,1694959966
331,vadso,70.0744,29.7487,8.49,93,75,2.57,NO,1694959966
332,virginia,37.5481,-77.4467,24.12,69,75,6.17,US,1694959966
333,burang,30.25,81.1667,8.62,94,100,2.6,CN,1694959967
334,campo mourao,-24.0456,-52.3831,29.01,36,0,4.44,BR,1694959967
335,banfora,10.6333,-4.7667,26.63,78,100,3.15,BF,1694959967
336,bantogon,6.5333,124.0333,25.24,89,100,1.05,PH,1694959967
337,robore,-18.3333,-59.75,35.74,29,0,6.18,BO,1694959967
338,yamethin,20.4333,96.15,24.51,95,100,1.79,MM,1694959968
339,port augusta,-32.5,137.7667,22.07,19,6,5.33,AU,1694959968
340,sabang,5.8933,95.3214,28.54,74,16,5.5,ID,1694959968
341,makokou,0.5738,12.8642,23.15,91,100,1.32,GA,1694959968
342,petropavlovsk-kamchatsky,53.0452,158.6483,9.32,71,23,9.95,RU,1694959778
343,vanimo,-2.6741,141.3028,25.33,89,100,1.81,PG,1694959969
344,chamzinka,54.4019,45.7839,18.25,53,17,2.71,RU,1694959969
345,fort mcmurray,56.7268,-111.381,7.77,100,0,3.09,CA,1694959969
346,zirc,47.2636,17.8737,26.27,38,1,2.56,HU,1694959969
347,inari,68.906,27.0288,8.11,96,100,5.47,FI,1694959675
348,achit,56.7985,57.8994,15.62,68,8,1.67,RU,1694959969
349,charters towers,-20.1,146.2667,15.4,81,0,4.05,AU,1694959970
350,cuyo,10.8525,121.0086,28.8,77,100,3.33,PH,1694959970
351,antsiranana,-12.2787,49.2917,25.52,68,24,6.47,MG,1694959970
352,verkhnyaya khava,51.8404,39.9413,22.04,41,82,1.95,RU,1694959971
353,ilare,7.3507,5.1133,26.86,77,98,2.81,NG,1694959971
354,choibalsan,48.0667,114.5,7.8,80,97,2.48,MN,1694959971
355,vila franca do campo,37.7167,-25.4333,23.27,99,100,5.14,PT,1694959972
356,acarau,-2.8856,-40.12,31.57,50,6,7.65,BR,1694959846
357,atherton,53.5237,-2.4935,20.12,74,100,1.34,GB,1694959861
358,margny-les-compiegne,49.4256,2.8181,27.69,74,99,2.71,FR,1694959972
359,piton saint-leu,-21.2196,55.3151,23.06,65,75,4.12,RE,1694959973
360,springbok,-29.6643,17.8865,21.04,18,0,4.28,ZA,1694959973
361,chamba,32.5667,76.1333,23.3,88,48,1.47,IN,1694959973
362,ajdabiya,30.7554,20.2263,28.35,59,0,9.01,LY,1694959698
363,juneau,58.3019,-134.4197,11.79,95,100,9.26,US,1694959973
364,ancud,-41.8697,-73.8203,6.45,82,93,1.84,CL,1694959974
365,joao pinheiro,-17.7425,-46.1725,30.26,35,36,3.64,BR,1694959974
366,fruita,39.1589,-108.729,16.43,49,75,5.14,US,1694959974
367,vershino-darasunskiy,52.35,115.5167,5.43,92,100,0.46,RU,1694959974
368,port hedland,-20.3167,118.5667,23.03,94,57,2.57,AU,1694959974
369,korla,41.7597,86.1469,21.85,31,5,1.71,CN,1694959974
370,howrah,22.5892,88.3103,32.0,70,40,1.54,IN,1694959888
371,taroa,8.7058,171.2275,26.12,91,100,10.51,MH,1694959975
372,manadhoo,5.7667,73.3833,28.14,73,83,4.56,MV,1694959975
373,brookings,44.3114,-96.7984,11.32,95,0,0.0,US,1694959975
374,walvis bay,-22.9575,14.5053,15.05,53,13,5.77,NA,1694959975
375,santa rosalia,27.3167,-112.2833,26.75,26,42,2.06,MX,1694959975
376,al khafji,28.4391,48.4913,35.21,39,1,3.7,SA,1694959976
377,santa marta,11.2408,-74.199,30.5,76,100,0.45,CO,1694959976
378,sorong,-0.8833,131.25,25.88,84,100,5.63,ID,1694959976
379,gunnison,38.7,-107.0673,-1.53,46,3,0.43,US,1694959976
380,yuzhno-kurilsk,44.0306,145.8556,17.9,99,100,4.46,RU,1694959976
381,mabaruma,8.2,-59.7833,33.64,48,68,2.04,GY,1694959977
382,lewisburg,35.4492,-86.7889,21.2,90,0,2.57,US,1694959977
383,verkhniy mamon,50.1635,40.3832,22.93,30,100,2.55,RU,1694959977
384,mhangura,-16.8939,30.1683,35.04,9,0,2.5,ZW,1694959977
385,bogale,16.2833,95.4,24.61,94,100,2.62,MM,1694959977
386,rio gallegos,-51.6226,-69.2181,3.36,53,4,6.92,AR,1694959758
387,topki,55.2769,85.6163,15.89,60,95,1.0,RU,1694959918
388,road town,18.4167,-64.6167,32.02,58,20,4.12,VG,1694959978
389,qui nhon,13.7667,109.2333,27.73,81,100,1.45,VN,1694959978
390,international falls,48.6011,-93.411,11.1,100,100,0.0,US,1694959978
391,san jose del guaviare,2.5729,-72.6459,25.16,86,99,0.86,CO,1694959978
392,xinyuan,37.3,99.0,8.12,29,24,3.85,CN,1694959979
393,baoro,5.6667,15.9667,23.54,85,100,0.79,CF,1694959979
394,nykobing sjaelland,55.9249,11.6711,22.96,70,100,4.63,DK,1694959979
395,pontes e lacerda,-15.2261,-59.3353,36.74,25,0,2.84,BR,1694959979
396,gao,16.6362,1.637,38.8,22,63,2.2,ML,1694959979
397,colac,-38.3333,143.5833,11.76,93,97,0.93,AU,1694959980
398,maitum,6.0392,124.4986,26.1,87,100,0.64,PH,1694959980
399,pedernales,18.0384,-71.744,29.59,64,97,1.1,DO,1694959980
400,kenora,49.8167,-94.4337,11.54,100,100,2.57,CA,1694959980
401,guatrache,-37.6678,-63.5302,11.7,33,95,7.02,AR,1694959980
402,nabire,-3.3667,135.4833,25.05,87,100,1.47,ID,1694959980
403,zhezqazghan,47.7833,67.7667,18.81,37,100,5.27,KZ,1694959981
404,luwingu,-10.2621,29.9271,33.37,13,89,3.51,ZM,1694959981
405,pathalgaon,22.5667,83.4667,24.95,85,100,1.11,IN,1694959981
406,kuusamo,65.9667,29.1833,9.02,93,100,2.06,FI,1694959981
407,midvagur,62.0511,-7.1939,11.46,87,75,7.2,FO,1694959981
408,horta,38.5333,-28.6333,22.8,60,20,4.63,PT,1694959981
409,ponta delgada,37.7333,-25.6667,23.44,56,40,6.17,PT,1694959682
410,chibougamau,49.9168,-74.3659,15.79,82,75,2.57,CA,1694959982
411,kolo,52.2002,18.6387,27.46,36,63,2.7,PL,1694959982
412,puerto real,36.5282,-6.1901,24.09,64,20,5.66,ES,1694959982
413,estacion coahuila,32.1939,-115.0017,26.71,47,0,2.9,MX,1694959983
414,cacule,-14.5033,-42.2222,29.57,35,4,5.23,BR,1694959960
415,tual,-5.6667,132.75,25.42,79,15,8.7,ID,1694959983
416,bom jesus,-9.0744,-44.3586,35.69,23,0,3.67,BR,1694959983
417,ta`u,-14.2336,-169.5144,26.7,83,77,8.77,AS,1694959983
418,santa elena de uairen,4.6167,-61.1333,26.14,60,16,4.42,VE,1694959983
419,jinghong,21.991,100.7341,22.27,98,31,0.8,CN,1694959983
420,wenling,28.3669,121.36,25.35,88,6,0.78,CN,1694959984
421,khorinsk,52.1657,109.7726,9.92,84,89,1.73,RU,1694959984
422,ola,59.5833,151.2833,2.86,86,76,1.88,RU,1694959984
423,plastun,44.7561,136.2939,15.59,96,100,1.41,RU,1694959984
424,wasilkow,53.1991,23.2078,27.32,54,15,0.89,PL,1694959984
425,idri,27.5,13.2667,34.63,11,4,3.57,LY,1694959985
426,rikaze,29.25,88.8833,16.92,32,100,3.8,CN,1694959985
427,mahina,-17.5065,-149.489,23.87,83,40,4.63,PF,1694959985
428,vidor,30.1316,-94.0155,26.98,69,1,2.3,US,1694959985
429,ust'-kulom,61.6864,53.6902,12.19,73,100,1.7,RU,1694959986
430,thongwa,16.7619,96.5278,28.09,93,100,2.53,MM,1694959986
431,zeya,53.75,127.2667,9.04,97,100,1.07,RU,1694959986
432,panguipulli,-39.6333,-72.3333,4.53,96,99,0.74,CL,1694959986
433,komarichi,52.4151,34.7905,20.51,41,7,2.46,RU,1694959986
434,nasir,15.5894,32.5634,39.96,10,34,1.39,SD,1694959987
435,rosarito,32.3333,-117.0333,19.71,77,99,3.09,MX,1694959987
436,san alberto,7.7611,-73.3922,28.18,69,100,1.49,CO,1694959987
437,paramonga,-10.6667,-77.8333,19.47,87,94,3.38,PE,1694959987
438,kirensk,57.7853,108.1119,9.52,95,36,0.96,RU,1694959988
439,palmer,42.1584,-72.3287,20.17,65,0,1.54,US,1694959988
440,boguchany,58.3814,97.4531,12.05,72,63,0.92,RU,1694959988
441,marovoay,-16.1,46.6333,33.48,27,0,1.33,MG,1694959988
442,deniliquin,-35.5333,144.9667,16.44,43,0,3.84,AU,1694959989
443,wewak,-3.5534,143.6268,26.0,86,100,4.09,PG,1694959989
444,howard springs,-12.497,131.047,25.95,71,14,4.31,AU,1694959989
445,penapolis,-21.4197,-50.0775,35.37,26,0,4.61,BR,1694959989
446,yerofey pavlovich,53.9667,121.9667,8.0,97,100,1.45,RU,1694959989
447,havre,49.5833,0.3333,23.52,88,75,4.12,FR,1694959989
448,tchintabaraden,15.8969,5.7985,36.37,29,93,2.2,NE,1694959989
449,paracuru,-3.41,-39.0306,28.39,48,9,7.43,BR,1694959990
450,lezoux,45.8269,3.3792,25.79,53,75,6.17,FR,1694959990
451,itaueira,-7.6033,-43.0256,33.77,27,26,4.15,BR,1694959990
452,tateyama,34.9833,139.8667,27.83,88,5,6.79,JP,1694959990
453,melekeok village,7.4957,134.6367,26.31,94,75,0.0,PW,1694959990
454,grand falls-windsor,48.9332,-55.6649,23.06,76,38,2.24,CA,1694959991
455,murzuq,25.9155,13.9184,34.46,11,1,3.77,LY,1694959991
456,khorugh,37.4897,71.553,19.41,24,0,2.85,TJ,1694959991
457,concepcion,-36.827,-73.0498,9.89,71,0,3.6,CL,1694959991
458,dhari,21.3333,71.0167,26.07,79,100,5.94,IN,1694959991
459,coquimbo,-29.9533,-71.3436,15.38,77,9,2.04,CL,1694959763
460,san pedro pochutla,15.7333,-96.4667,26.51,68,55,1.24,MX,1694959992
461,kristiansund,63.1115,7.732,14.03,50,0,1.54,NO,1694959992
462,kota belud,6.351,116.4305,26.36,86,69,1.62,MY,1694959992
463,new norfolk,-42.7826,147.0587,9.72,87,94,1.56,AU,1694959992
464,gaigeturi,33.4644,126.3183,24.03,94,75,1.54,KR,1694959992
465,luderitz,-26.6481,15.1594,19.88,47,0,11.75,NA,1694959993
466,jertih,5.7336,102.4897,25.48,90,79,0.83,MY,1694959993
467,mahibadhoo,3.7833,72.9667,28.43,77,76,5.71,MV,1694959993
468,tamanrasset,22.785,5.5228,34.95,10,0,1.54,DZ,1694959993
469,yantzaza,-3.8278,-78.7594,25.78,59,77,0.81,EC,1694959993
470,cova figueira,14.8905,-24.2934,23.15,76,10,6.18,CV,1694959994
471,wenchang,30.904,118.4887,24.13,86,0,2.19,CN,1694959744
472,notodden,59.5594,9.2585,17.09,56,20,1.03,NO,1694959994
473,trapani,37.8333,12.6667,31.26,35,10,4.24,IT,1694959861
474,qusmuryn,52.4503,64.6311,16.94,52,100,3.2,KZ,1694959994
475,sao joao da barra,-21.6403,-41.0511,28.05,78,16,6.0,BR,1694959995
476,mandvi,22.8333,69.3667,28.11,82,100,7.86,IN,1694959995
477,taro,-8.3862,115.28,21.03,95,56,0.99,ID,1694959995
478,zhuanghe,39.7008,122.9911,20.85,87,100,2.06,CN,1694959995
479,kyshtovka,56.555,76.6271,14.58,73,98,1.44,RU,1694959995
480,nadi,-17.8,177.4167,24.0,94,20,0.0,FJ,1694959996
481,porto novo,6.4965,2.6036,28.56,69,99,5.72,BJ,1694959996
482,magadan,59.5667,150.8,2.52,85,80,3.83,RU,1694959996
483,viransehir,37.2353,39.7631,33.63,10,0,4.5,TR,1694959778
484,lecco,45.8533,9.3905,27.68,70,92,1.79,IT,1694959204
485,floro,61.5996,5.0328,18.04,63,0,2.06,NO,1694959848
486,toliara,-23.35,43.6667,25.57,70,0,6.77,MG,1694959997
487,vernon,50.2581,-119.2691,19.34,44,100,1.03,CA,1694959997
488,qamdo,31.1667,97.2333,5.12,90,98,2.11,CN,1694959997
489,diofior,14.1833,-16.6667,33.13,49,100,1.03,SN,1694959997
490,susanville,40.4163,-120.653,9.91,66,0,1.54,US,1694959997
491,huangshi,30.2042,115.0776,25.42,83,80,3.17,CN,1694959997
492,cam ranh,11.9214,109.1591,28.98,74,40,2.06,VN,1694959998
493,kemijarvi,66.7131,27.4306,7.71,93,100,2.31,FI,1694959998
494,altay,47.8667,88.1167,10.26,61,44,2.36,CN,1694959998
495,kiunga,-6.1219,141.2906,20.39,90,62,1.33,PG,1694959998
496,kurumkan,54.3,110.3,12.2,75,50,1.8,RU,1694959998
497,manali,13.1667,80.2667,28.37,84,98,8.25,IN,1694959822
498,vila velha,-20.3297,-40.2925,27.97,76,40,5.14,BR,1694959981
499,cockburn town,21.4612,-71.1419,28.78,73,50,4.26,TC,1694959999
500,rumoi,43.9344,141.6428,19.47,95,100,1.48,JP,1694959999
501,akhtyrskiy,44.8546,38.3031,23.35,31,0,7.19,RU,1694959891
502,takai,11.5833,9.1167,33.8,38,43,0.67,NG,1694959999
503,villanueva,15.3167,-88.0,28.55,79,40,1.54,HN,1694959999
504,santa terezinha,-29.9002,-50.0904,24.43,60,0,2.23,BR,1694960000
505,taoudenni,22.6783,-3.9836,43.96,12,9,6.6,ML,1694960000
506,cortez,37.3489,-108.5859,14.83,81,20,1.54,US,1694960000
507,kanniyakumari,8.0833,77.5667,26.75,83,100,6.19,IN,1694960000
508,glendive,47.1053,-104.7125,14.79,58,0,3.6,US,1694960000
509,paoua,7.2427,16.4406,23.11,90,100,0.04,CF,1694960000
510,tomatlan,19.9333,-105.25,25.48,94,99,1.4,MX,1694960001
511,colchani,-20.3,-66.9333,9.42,23,4,4.02,BO,1694960001
512,goondiwindi,-28.55,150.3167,17.95,39,0,3.32,AU,1694960001
513,saudarkrokur,65.7461,-19.6394,9.25,76,100,2.53,IS,1694960001
514,champerico,14.3,-91.9167,28.3,76,71,1.75,GT,1694960001
515,ryotsu-minato,38.0833,138.4333,25.68,86,10,3.0,JP,1694960001
516,lautoka,-17.6167,177.4667,23.92,94,20,0.0,FJ,1694960002
517,acajutla,13.5928,-89.8275,28.75,69,100,1.33,SV,1694960002
518,kyzyl-suu,42.3414,78.0056,13.24,78,96,3.35,KG,1694960002
519,la'ie,21.6477,-157.9253,26.98,76,6,1.79,US,1694960002
520,sao felix do xingu,-6.6447,-51.995,35.41,35,1,2.36,BR,1694960002
521,tarecuato,19.85,-102.4833,15.93,93,80,0.79,MX,1694960002
522,junin de los andes,-39.9504,-71.0694,3.19,60,7,5.34,AR,1694960003
523,cozumel,20.5083,-86.9458,32.04,79,0,2.24,MX,1694960003
524,iwon-up,40.3231,128.6553,20.65,93,100,1.69,KP,1694960003
525,lakes,61.6071,-149.3086,8.68,95,100,1.54,US,1694960003
526,tupiza,-21.45,-65.7167,21.53,7,5,0.95,BO,1694960003
527,coronel dorrego,-38.7187,-61.2873,13.21,28,100,6.3,AR,1694960004
528,nanyuki,0.0167,37.0728,20.11,63,100,3.18,KE,1694960004
529,dhalie,13.6957,44.7314,28.8,36,97,3.57,YE,1694960004
530,sola,-13.8833,167.55,25.79,81,56,7.8,VU,1694959728
531,nova olinda do norte,-3.8881,-59.0942,35.3,39,2,2.21,BR,1694960004
532,port alfred,-33.5906,26.891,17.88,66,11,2.68,ZA,1694960004
533,zarqa,32.0728,36.088,30.66,36,0,5.14,JO,1694960005
534,ishigaki,24.3448,124.1572,27.07,89,75,1.54,JP,1694960005
535,taco pozo,-25.6167,-63.2833,34.17,27,0,5.36,AR,1694960005
536,levuka,50.1834,-105.4011,9.9,39,0,3.33,CA,1694960005
537,blitar,-8.0983,112.1681,22.12,91,53,2.28,ID,1694960005
538,daru,-9.0763,143.2092,24.0,76,7,5.99,PG,1694960006
539,souillac,-20.5167,57.5167,24.21,73,40,3.6,MU,1694960006
540,sinop,41.7711,34.8709,16.0,78,58,3.67,TR,1694960006
541,dakhla,23.6848,-15.958,26.01,61,6,9.77,EH,1694960006
542,cartagena,10.3997,-75.5144,30.79,79,40,3.09,CO,1694959990
543,ialibu,-6.2821,143.9935,12.78,96,100,0.84,PG,1694960006
544,aroma,15.8167,36.1333,38.08,25,19,0.52,SD,1694959908
545,delaware,39.0004,-75.4999,24.99,83,0,2.57,US,1694960007
546,kidal,18.4411,1.4078,39.57,17,26,3.34,ML,1694960007
547,grootfontein,-19.5667,18.1167,32.02,7,0,1.88,NA,1694959817
548,buala,-8.145,159.5921,26.18,86,100,4.02,SB,1694960007
549,tazacorte,28.629,-17.9293,25.64,67,40,6.17,ES,1694960007
550,palembang,-2.9167,104.7458,27.05,83,75,1.54,ID,1694960008
551,broken hill,-31.95,141.4333,23.5,18,1,4.51,AU,1694960008
552,periyapatti,10.75,77.2667,26.56,80,100,8.25,IN,1694960008
